{
  "total": 220,
  "type_stats": {
    "不可移动文物": 80,
    "文化景观": 19,
    "历史文化名村": 12,
    "圩市街区": 18,
    "非遗项目": 91
  },
  "town_stats": {
    "西樵镇": 94,
    "丹灶镇": 33,
    "九江镇": 39,
    "桂城街道": 33,
    "狮山镇": 3,
    "大沥镇": 14,
    "里水镇": 4
  },
  "anchors": [
    {
      "name": "云泉仙馆",
      "anchor_type": "不可移动文物",
      "sub_type": "古建筑",
      "era": "清乾隆丁酉年（1777）",
      "protection_level": "省级文物保护单位",
      "address": "西樵镇樵园居委会西樵山白云洞风景区白云峰西北麓",
      "town": "西樵镇",
      "lng": 112.96566,
      "lat": 22.932927,
      "id": "ANC_0001"
    },
    {
      "name": "绮亭陈公祠",
      "anchor_type": "不可移动文物",
      "sub_type": "古建筑",
      "era": "清光绪十三年（1887）",
      "protection_level": "省级文物保护单位",
      "address": "西樵镇简村村委会幼儿园东侧",
      "town": "西樵镇",
      "lng": 112.95341,
      "lat": 22.945087,
      "id": "ANC_0002",
      "town_fix_source": "address"
    },
    {
      "name": "象林塔",
      "anchor_type": "不可移动文物",
      "sub_type": "古建筑",
      "era": "清康熙五年（1666年）",
      "protection_level": "省级文物保护单位",
      "address": "西樵镇樵园居委会西樵山白云洞风景区",
      "town": "西樵镇",
      "lng": 112.963822,
      "lat": 22.933414,
      "id": "ANC_0003",
      "town_fix_source": "address"
    },
    {
      "name": "西樵山采石场遗址",
      "anchor_type": "不可移动文物",
      "sub_type": "古遗址",
      "era": "明-清",
      "protection_level": "全国重点文物保护单位",
      "address": "西樵镇西樵山碧云村石燕岩",
      "town": "西樵镇",
      "lng": 112.984834,
      "lat": 22.919916,
      "id": "ANC_0004",
      "town_fix_source": "address"
    },
    {
      "name": "鱿鱼岗遗址",
      "anchor_type": "不可移动文物",
      "sub_type": "古遗址",
      "era": "新石器时代晚期-夏商",
      "protection_level": "省级文物保护单位",
      "address": "西樵镇百西村委会水边村鱿鱼岗",
      "town": "西樵镇",
      "lng": 112.914946,
      "lat": 22.957935,
      "id": "ANC_0005",
      "town_fix_source": "address"
    },
    {
      "name": "南蛇岗遗址",
      "anchor_type": "不可移动文物",
      "sub_type": "古遗址",
      "era": "新石器时代",
      "protection_level": "省级文物保护单位",
      "address": "西樵镇山根村委会樟坑村蚺蛇岗东南坡",
      "town": "西樵镇",
      "lng": 112.995224,
      "lat": 22.921764,
      "id": "ANC_0006",
      "town_fix_source": "address"
    },
    {
      "name": "富贤遗址",
      "anchor_type": "不可移动文物",
      "sub_type": "古遗址",
      "era": "新石器时代",
      "protection_level": "省级文物保护单位",
      "address": "西樵镇显岗村委会富贤村后平面岗、石沙围",
      "town": "西樵镇",
      "lng": 112.99099,
      "lat": 22.914314,
      "id": "ANC_0007",
      "town_fix_source": "address"
    },
    {
      "name": "佛子庙镇头遗址",
      "anchor_type": "不可移动文物",
      "sub_type": "古遗址",
      "era": "新石器时代",
      "protection_level": "省级文物保护单位",
      "address": "西樵镇儒溪村委会江边村环山公路佛子庙与镇头",
      "town": "西樵镇",
      "lng": 112.961564,
      "lat": 22.912037,
      "id": "ANC_0008",
      "town_fix_source": "address"
    },
    {
      "name": "火石迳遗址",
      "anchor_type": "不可移动文物",
      "sub_type": "古遗址",
      "era": "新石器时代",
      "protection_level": "省级文物保护单位",
      "address": "西樵镇山根村委会莘村村火石岗",
      "town": "西樵镇",
      "lng": 112.997791,
      "lat": 22.934179,
      "id": "ANC_0009",
      "town_fix_source": "address"
    },
    {
      "name": "锦岩遗址",
      "anchor_type": "不可移动文物",
      "sub_type": "古遗址",
      "era": "新石器时代",
      "protection_level": "省级文物保护单位",
      "address": "西樵镇西樵山云路村锦岩",
      "town": "西樵镇",
      "lng": 112.972411,
      "lat": 22.921564,
      "id": "ANC_0010",
      "town_fix_source": "address"
    },
    {
      "name": "四峰书院遗址",
      "anchor_type": "不可移动文物",
      "sub_type": "古遗址",
      "era": "明嘉靖癸未年（1523）",
      "protection_level": "省级文物保护单位",
      "address": "西樵镇西樵山寺边村",
      "town": "西樵镇",
      "lng": 112.973856,
      "lat": 22.91818,
      "id": "ANC_0011",
      "town_fix_source": "address"
    },
    {
      "name": "霍韬夫人墓",
      "anchor_type": "不可移动文物",
      "sub_type": "古墓葬",
      "era": "明",
      "protection_level": "省级文物保护单位",
      "address": "西樵镇西樵山寺边村",
      "town": "西樵镇",
      "lng": 112.973859,
      "lat": 22.918362,
      "id": "ANC_0012",
      "town_fix_source": "address"
    },
    {
      "name": "宝峰胜处摩崖石刻",
      "anchor_type": "不可移动文物",
      "sub_type": "石窟寺及石刻",
      "era": "明",
      "protection_level": "省级文物保护单位",
      "address": "西樵镇西樵山寺边村西南侧",
      "town": "西樵镇",
      "lng": 112.980933,
      "lat": 22.929502,
      "id": "ANC_0013",
      "town_fix_source": "address"
    },
    {
      "name": "奎光楼",
      "anchor_type": "不可移动文物",
      "sub_type": "古建筑",
      "era": "清乾隆四十二年（1777）",
      "protection_level": "市级文物保护单位",
      "address": "西樵镇樵园居委会西樵山白云洞风景区",
      "town": "西樵镇",
      "lng": 112.964276,
      "lat": 22.933947,
      "id": "ANC_0014",
      "town_fix_source": "address"
    },
    {
      "name": "白云古寺",
      "anchor_type": "不可移动文物",
      "sub_type": "古建筑",
      "era": "清乾隆四十九年（1784）",
      "protection_level": "市级文物保护单位",
      "address": "西樵镇樵园居委会西樵山白云洞风景区",
      "town": "西樵镇",
      "lng": 112.964364,
      "lat": 22.933846,
      "id": "ANC_0015",
      "town_fix_source": "address"
    },
    {
      "name": "字祖庙",
      "anchor_type": "不可移动文物",
      "sub_type": "古建筑",
      "era": "清乾隆四十二年（1777）",
      "protection_level": "市级文物保护单位",
      "address": "西樵镇樵园居委会西樵山白云洞风景区",
      "town": "西樵镇",
      "lng": 112.964474,
      "lat": 22.933739,
      "id": "ANC_0016",
      "town_fix_source": "address"
    },
    {
      "name": "龙母庙",
      "anchor_type": "不可移动文物",
      "sub_type": "近现代重要史迹及代表性建筑",
      "era": "中华民国二十七年（1938）",
      "protection_level": "市级文物保护单位",
      "address": "西樵镇樵园居委会西樵山蟠龙洞内",
      "town": "西樵镇",
      "lng": 112.973519,
      "lat": 22.939989,
      "id": "ANC_0017",
      "town_fix_source": "address"
    },
    {
      "name": "傅氏宗祠",
      "anchor_type": "不可移动文物",
      "sub_type": "近现代重要史迹及代表性建筑",
      "era": "中华民国二十一年（1932）",
      "protection_level": "市级文物保护单位",
      "address": "西樵镇西樵山碧云村",
      "town": "西樵镇",
      "lng": 112.981742,
      "lat": 22.925328,
      "id": "ANC_0018",
      "town_fix_source": "address"
    },
    {
      "name": "傅氏山庄南门",
      "anchor_type": "不可移动文物",
      "sub_type": "近现代重要史迹及代表性建筑",
      "era": "中华民国二十一年（1932）",
      "protection_level": "市级文物保护单位",
      "address": "西樵镇西樵山碧云村",
      "town": "西樵镇",
      "lng": 112.98177,
      "lat": 22.924819,
      "id": "ANC_0019",
      "town_fix_source": "address"
    },
    {
      "name": "敦义崇礼碉楼",
      "anchor_type": "不可移动文物",
      "sub_type": "近现代重要史迹及代表性建筑",
      "era": "中华民国二十三年(1934年)",
      "protection_level": "市级文物保护单位",
      "address": "西樵镇西樵山碧云村55号侧",
      "town": "西樵镇",
      "lng": 112.981371,
      "lat": 22.928312,
      "id": "ANC_0020",
      "town_fix_source": "address"
    },
    {
      "name": "傅老榕旧居",
      "anchor_type": "不可移动文物",
      "sub_type": "近现代重要史迹及代表性建筑",
      "era": "中华民国21年（1932）",
      "protection_level": "市级文物保护单位",
      "address": "西樵镇西樵山碧云村55号",
      "town": "西樵镇",
      "lng": 112.981371,
      "lat": 22.928312,
      "id": "ANC_0021",
      "town_fix_source": "address"
    },
    {
      "name": "松塘世大夫家庙",
      "anchor_type": "不可移动文物",
      "sub_type": "古建筑",
      "era": "清",
      "protection_level": "市级文物保护单位",
      "address": "西樵镇上金瓯村委会松塘村文昌圩22号侧",
      "town": "西樵镇",
      "lng": 112.907173,
      "lat": 22.992616,
      "id": "ANC_0022",
      "town_fix_source": "address"
    },
    {
      "name": "松塘东山祖祠",
      "anchor_type": "不可移动文物",
      "sub_type": "古建筑",
      "era": "清",
      "protection_level": "市级文物保护单位",
      "address": "西樵镇上金瓯村委会松塘村文昌圩22号侧",
      "town": "西樵镇",
      "lng": 112.907173,
      "lat": 22.992617,
      "id": "ANC_0023",
      "town_fix_source": "address"
    },
    {
      "name": "松塘汇川家塾",
      "anchor_type": "不可移动文物",
      "sub_type": "古建筑",
      "era": "清",
      "protection_level": "市级文物保护单位",
      "address": "西樵镇上金瓯村委会松塘村桂香坊13号",
      "town": "西樵镇",
      "lng": 112.913162,
      "lat": 22.986077,
      "id": "ANC_0024",
      "town_fix_source": "address"
    },
    {
      "name": "松塘见五大夫祠",
      "anchor_type": "不可移动文物",
      "sub_type": "古建筑",
      "era": "清光绪七年（1881）",
      "protection_level": "市级文物保护单位",
      "address": "西樵镇上金瓯村委会松塘村桂香坊",
      "town": "西樵镇",
      "lng": 112.913098,
      "lat": 22.98617,
      "id": "ANC_0025",
      "town_fix_source": "address"
    },
    {
      "name": "松塘六世祖祠",
      "anchor_type": "不可移动文物",
      "sub_type": "古建筑",
      "era": "清",
      "protection_level": "市级文物保护单位",
      "address": "西樵镇上金瓯村委会松塘村桂香坊",
      "town": "西樵镇",
      "lng": 112.912902,
      "lat": 22.986592,
      "id": "ANC_0026",
      "town_fix_source": "address"
    },
    {
      "name": "松塘区氏宗祠",
      "anchor_type": "不可移动文物",
      "sub_type": "古建筑",
      "era": "清宣统二年（1909）",
      "protection_level": "市级文物保护单位",
      "address": "西樵镇上金瓯村委会松塘村桂香坊",
      "town": "西樵镇",
      "lng": 112.912902,
      "lat": 22.986593,
      "id": "ANC_0027",
      "town_fix_source": "address"
    },
    {
      "name": "松塘司马第",
      "anchor_type": "不可移动文物",
      "sub_type": "古建筑",
      "era": "晚清",
      "protection_level": "市级文物保护单位",
      "address": "西樵镇上金瓯村委会松塘村桂香坊126号",
      "town": "西樵镇",
      "lng": 112.912902,
      "lat": 22.986594,
      "id": "ANC_0028",
      "town_fix_source": "address"
    },
    {
      "name": "松塘甘井",
      "anchor_type": "不可移动文物",
      "sub_type": "古建筑",
      "era": "宋",
      "protection_level": "市级文物保护单位",
      "address": "西樵镇上金瓯村委会松塘村桂阳坊42号侧",
      "town": "西樵镇",
      "lng": 112.910779,
      "lat": 22.986061,
      "id": "ANC_0029",
      "town_fix_source": "address"
    },
    {
      "name": "松塘塘西六世祖祠",
      "anchor_type": "不可移动文物",
      "sub_type": "古建筑",
      "era": "清光绪乙未年（1895）",
      "protection_level": "市级文物保护单位",
      "address": "西樵镇上金瓯村委会松塘村塘西坊61号侧",
      "town": "西樵镇",
      "lng": 112.909578,
      "lat": 22.986672,
      "id": "ANC_0030",
      "town_fix_source": "address"
    },
    {
      "name": "松塘培元书舍",
      "anchor_type": "不可移动文物",
      "sub_type": "古建筑",
      "era": "清",
      "protection_level": "市级文物保护单位",
      "address": "西樵镇上金瓯村委会松塘村忠心坊4号B侧",
      "town": "西樵镇",
      "lng": 112.910275,
      "lat": 22.985121,
      "id": "ANC_0031",
      "town_fix_source": "address"
    },
    {
      "name": "松塘太史第",
      "anchor_type": "不可移动文物",
      "sub_type": "古建筑",
      "era": "清",
      "protection_level": "市级文物保护单位",
      "address": "西樵镇上金瓯村委会松塘村华宁坊59号侧",
      "town": "西樵镇",
      "lng": 112.912236,
      "lat": 22.985299,
      "id": "ANC_0032",
      "town_fix_source": "address"
    },
    {
      "name": "松塘翘秀园",
      "anchor_type": "不可移动文物",
      "sub_type": "古建筑",
      "era": "清",
      "protection_level": "市级文物保护单位",
      "address": "西樵镇上金瓯村委会松塘村华宁坊1号",
      "town": "西樵镇",
      "lng": 112.910982,
      "lat": 22.985446,
      "id": "ANC_0033",
      "town_fix_source": "address"
    },
    {
      "name": "区梦觉故居",
      "anchor_type": "不可移动文物",
      "sub_type": "近现代重要史迹及代表性建筑",
      "era": "1906年",
      "protection_level": "市级文物保护单位",
      "address": "西樵镇上金瓯村委会松塘村华宁坊69号",
      "town": "西樵镇",
      "lng": 112.912594,
      "lat": 22.985217,
      "id": "ANC_0034",
      "town_fix_source": "address"
    },
    {
      "name": "西樵山紫姑井",
      "anchor_type": "不可移动文物",
      "sub_type": "古建筑",
      "era": "唐",
      "protection_level": "市级文物保护单位",
      "address": "西樵镇西樵山寺边村九龙岩景区",
      "town": "西樵镇",
      "lng": 112.976037,
      "lat": 22.91698,
      "id": "ANC_0035",
      "town_fix_source": "address"
    },
    {
      "name": "西樵山仙姑亭",
      "anchor_type": "不可移动文物",
      "sub_type": "古建筑",
      "era": "清光绪戊戌年（1898）",
      "protection_level": "市级文物保护单位",
      "address": "西樵镇西樵山寺边村九龙岩景区",
      "town": "西樵镇",
      "lng": -1.7976931348623157e+308,
      "lat": -1.7976931348623157e+308,
      "id": "ANC_0036",
      "town_fix_source": "address"
    },
    {
      "name": "西樵山蟹眼泉",
      "anchor_type": "不可移动文物",
      "sub_type": "古建筑",
      "era": "清",
      "protection_level": "市级文物保护单位",
      "address": "西樵镇西樵山碧云村翠岩风景区",
      "town": "西樵镇",
      "lng": 112.980036,
      "lat": 22.931352,
      "id": "ANC_0037",
      "town_fix_source": "address"
    },
    {
      "name": "西樵山无叶井",
      "anchor_type": "不可移动文物",
      "sub_type": "古建筑",
      "era": "明清",
      "protection_level": "市级文物保护单位",
      "address": "西樵镇西樵山碧云村村口",
      "town": "西樵镇",
      "lng": 112.980731,
      "lat": 22.928262,
      "id": "ANC_0038",
      "town_fix_source": "address"
    },
    {
      "name": "西樵山百步云梯",
      "anchor_type": "不可移动文物",
      "sub_type": "古建筑",
      "era": "明正德十二年（1517）",
      "protection_level": "市级文物保护单位",
      "address": "西樵镇西樵山石牌村金钗峰北麓",
      "town": "西樵镇",
      "lng": 112.981144,
      "lat": 22.937175,
      "id": "ANC_0039",
      "town_fix_source": "address"
    },
    {
      "name": "禄舟万寿堂",
      "anchor_type": "不可移动文物",
      "sub_type": "古建筑",
      "era": "清乾隆四十九年（1784）",
      "protection_level": "市级文物保护单位",
      "address": "西樵镇岭西村委会禄舟村2O号",
      "town": "西樵镇",
      "lng": 112.948687,
      "lat": 22.922072,
      "id": "ANC_0040",
      "town_fix_source": "address"
    },
    {
      "name": "百西潘氏大宗祠",
      "anchor_type": "不可移动文物",
      "sub_type": "古建筑",
      "era": "清乾隆二十六年（1762）",
      "protection_level": "市级文物保护单位",
      "address": "西樵镇百西村委会村头村百西幼儿园侧",
      "town": "西樵镇",
      "lng": 112.920346,
      "lat": 22.962484,
      "id": "ANC_0041",
      "town_fix_source": "address"
    },
    {
      "name": "湖山胜迹门楼",
      "anchor_type": "不可移动文物",
      "sub_type": "古建筑",
      "era": "清咸丰三年（1853）",
      "protection_level": "市级文物保护单位",
      "address": "西樵镇樵园居委会西樵山白云洞风景区",
      "town": "西樵镇",
      "lng": 112.965363,
      "lat": 22.933235,
      "id": "ANC_0042",
      "town_fix_source": "address"
    },
    {
      "name": "小云亭",
      "anchor_type": "不可移动文物",
      "sub_type": "古建筑",
      "era": "清咸丰八年（1858）",
      "protection_level": "市级文物保护单位",
      "address": "西樵镇樵园居委会西樵山白云洞风景区",
      "town": "西樵镇",
      "lng": 112.966142,
      "lat": 22.932936,
      "id": "ANC_0043",
      "town_fix_source": "address"
    },
    {
      "name": "光分亭",
      "anchor_type": "不可移动文物",
      "sub_type": "古建筑",
      "era": "清道光二十八年（1848）",
      "protection_level": "市级文物保护单位",
      "address": "西樵镇樵园居委会西樵山白云洞风景区",
      "town": "西樵镇",
      "lng": 112.962325,
      "lat": 22.933011,
      "id": "ANC_0044",
      "town_fix_source": "address"
    },
    {
      "name": "枕流亭",
      "anchor_type": "不可移动文物",
      "sub_type": "古建筑",
      "era": "清乾隆乙酉年（1789）",
      "protection_level": "市级文物保护单位",
      "address": "西樵镇樵园居委会西樵山白云洞风景区应潮湖旁边",
      "town": "西樵镇",
      "lng": 112.964888,
      "lat": 22.932102,
      "id": "ANC_0045",
      "town_fix_source": "address"
    },
    {
      "name": "吉水窦",
      "anchor_type": "不可移动文物",
      "sub_type": "古建筑",
      "era": "清光绪甲午年（1894）",
      "protection_level": "市级文物保护单位",
      "address": "西樵镇西樵村委会吉水大道牌坊前",
      "town": "西樵镇",
      "lng": 112.96847,
      "lat": 22.942825,
      "id": "ANC_0046",
      "town_fix_source": "address"
    },
    {
      "name": "第弌洞天牌坊",
      "anchor_type": "不可移动文物",
      "sub_type": "古建筑",
      "era": "清乾隆年间（1736-1796）",
      "protection_level": "市级文物保护单位",
      "address": "西樵镇樵园居委会西樵山白云洞风景区。",
      "town": "西樵镇",
      "lng": 112.964717,
      "lat": 22.933533,
      "id": "ANC_0047",
      "town_fix_source": "address"
    },
    {
      "name": "铁屎墩冶炼遗址",
      "anchor_type": "不可移动文物",
      "sub_type": "古遗址",
      "era": "清",
      "protection_level": "市级文物保护单位",
      "address": "西樵镇百西村委会大地村",
      "town": "西樵镇",
      "lng": 112.922117,
      "lat": 22.955526,
      "id": "ANC_0048",
      "town_fix_source": "address"
    },
    {
      "name": "李子长墓",
      "anchor_type": "不可移动文物",
      "sub_type": "古墓葬",
      "era": "明嘉靖五年（1526）",
      "protection_level": "市级文物保护单位",
      "address": "西樵镇西樵山云路村云路峰下",
      "town": "西樵镇",
      "lng": 112.972752,
      "lat": 22.922157,
      "id": "ANC_0049",
      "town_fix_source": "address"
    },
    {
      "name": "大科峰摩崖石刻",
      "anchor_type": "不可移动文物",
      "sub_type": "石窟寺及石刻",
      "era": "清",
      "protection_level": "市级文物保护单位",
      "address": "西樵镇西樵山大科村大科峰西南麓",
      "town": "西樵镇",
      "lng": 112.977414,
      "lat": 22.92249,
      "id": "ANC_0050",
      "town_fix_source": "address"
    },
    {
      "name": "玉廪峰摩崖石刻",
      "anchor_type": "不可移动文物",
      "sub_type": "石窟寺及石刻",
      "era": "明嘉靖丙午年（1546）",
      "protection_level": "市级文物保护单位",
      "address": "西樵镇儒溪村江边村民小组玉廪峰巅",
      "town": "西樵镇",
      "lng": 112.960983,
      "lat": 22.920861,
      "id": "ANC_0051",
      "town_fix_source": "address"
    },
    {
      "name": "翠岩摩崖石刻",
      "anchor_type": "不可移动文物",
      "sub_type": "石窟寺及石刻",
      "era": "清",
      "protection_level": "市级文物保护单位",
      "address": "西樵镇西樵山碧云村翠岩景区",
      "town": "西樵镇",
      "lng": 112.980933,
      "lat": 22.929502,
      "id": "ANC_0052",
      "town_fix_source": "address"
    },
    {
      "name": "白云洞摩崖石刻",
      "anchor_type": "不可移动文物",
      "sub_type": "石窟寺及石刻",
      "era": "明—中华人民共和国",
      "protection_level": "市级文物保护单位",
      "address": "西樵镇樵园居委会西樵山白云洞风景区。",
      "town": "西樵镇",
      "lng": 112.964912,
      "lat": 22.933621,
      "id": "ANC_0053",
      "town_fix_source": "address"
    },
    {
      "name": "九龙岩摩崖石刻",
      "anchor_type": "不可移动文物",
      "sub_type": "石窟寺及石刻",
      "era": "明正德丁丑（1517）",
      "protection_level": "市级文物保护单位",
      "address": "西樵镇西樵山寺边村九龙岩景区",
      "town": "西樵镇",
      "lng": 112.977822,
      "lat": 22.916936,
      "id": "ANC_0054",
      "town_fix_source": "address"
    },
    {
      "name": "冯夏威墓",
      "anchor_type": "不可移动文物",
      "sub_type": "近现代重要史迹及代表性建筑",
      "era": "1905年",
      "protection_level": "市级文物保护单位",
      "address": "西樵镇樵园居委会蟠龙洞洞口",
      "town": "西樵镇",
      "lng": 112.975303,
      "lat": 22.940864,
      "id": "ANC_0055",
      "town_fix_source": "address"
    },
    {
      "name": "西樵山抗日阵亡将士暨死难同胞纪念碑",
      "anchor_type": "不可移动文物",
      "sub_type": "近现代重要史迹及代表性建筑",
      "era": "1947年",
      "protection_level": "市级文物保护单位",
      "address": "西樵镇东碧社区碧玉洞内",
      "town": "西樵镇",
      "lng": 112.981405,
      "lat": 22.934668,
      "id": "ANC_0056",
      "town_fix_source": "address"
    },
    {
      "name": "康有为故居",
      "anchor_type": "不可移动文物",
      "sub_type": "近现代重要史迹及代表性建筑",
      "era": "1858－1927",
      "protection_level": "全国重点文物保护单位",
      "address": "丹灶镇银河村委会苏村敦仁里",
      "town": "丹灶镇",
      "lng": 112.905461,
      "lat": 23.021024,
      "id": "ANC_0057"
    },
    {
      "name": "方献夫墓",
      "anchor_type": "不可移动文物",
      "sub_type": "古墓葬",
      "era": "明",
      "protection_level": "省级文物保护单位",
      "address": "丹灶镇良登村委会孔边村孔边岗",
      "town": "丹灶镇",
      "lng": 112.915719,
      "lat": 23.027375,
      "id": "ANC_0058",
      "town_fix_source": "address"
    },
    {
      "name": "仙迹丹泉",
      "anchor_type": "不可移动文物",
      "sub_type": "古建筑",
      "era": "晋",
      "protection_level": "省级文物保护单位",
      "address": "丹灶镇仙岗村委会仙岗村流水井二巷前",
      "town": "丹灶镇",
      "lng": 112.886577,
      "lat": 23.039443,
      "id": "ANC_0059",
      "town_fix_source": "address"
    },
    {
      "name": "南沙陈氏宗祠",
      "anchor_type": "不可移动文物",
      "sub_type": "古建筑",
      "era": "清乾隆三十九年（1774）",
      "protection_level": "市级文物保护单位",
      "address": "丹灶镇南沙村委会新村街十四巷1号",
      "town": "丹灶镇",
      "lng": 112.905606,
      "lat": 23.131102,
      "id": "ANC_0060",
      "town_fix_source": "address"
    },
    {
      "name": "沙水翰林步头",
      "anchor_type": "不可移动文物",
      "sub_type": "古建筑",
      "era": "清",
      "protection_level": "市级文物保护单位",
      "address": "丹灶镇劳边村委会沙水村西街坊南乔公前",
      "town": "丹灶镇",
      "lng": 112.928208,
      "lat": 23.057435,
      "id": "ANC_0061",
      "town_fix_source": "address"
    },
    {
      "name": "阴骘井",
      "anchor_type": "不可移动文物",
      "sub_type": "古建筑",
      "era": "宋",
      "protection_level": "市级文物保护单位",
      "address": "丹灶镇仙岗村委会苏坑村村尾",
      "town": "丹灶镇",
      "lng": 112.886543,
      "lat": 23.040686,
      "id": "ANC_0062",
      "town_fix_source": "address"
    },
    {
      "name": "贞烈牌坊",
      "anchor_type": "不可移动文物",
      "sub_type": "古建筑",
      "era": "清康熙年间（1662-1723）",
      "protection_level": "市级文物保护单位",
      "address": "丹灶镇仙岗村委会苏坑村村口",
      "town": "丹灶镇",
      "lng": 112.883872,
      "lat": 23.04674,
      "id": "ANC_0063",
      "town_fix_source": "address"
    },
    {
      "name": "东联吴氏大宗祠",
      "anchor_type": "不可移动文物",
      "sub_type": "古建筑",
      "era": "清",
      "protection_level": "市级文物保护单位",
      "address": "丹灶镇东联村委会水口村村前街西二十巷1号侧",
      "town": "丹灶镇",
      "lng": 112.945996,
      "lat": 23.089986,
      "id": "ANC_0064",
      "town_fix_source": "address"
    },
    {
      "name": "恒德徐公祠",
      "anchor_type": "不可移动文物",
      "sub_type": "古建筑",
      "era": "清光绪壬午年（1882）",
      "protection_level": "市级文物保护单位",
      "address": "丹灶镇西联村委会五甲村五巷1号",
      "town": "丹灶镇",
      "lng": 112.931257,
      "lat": 23.089846,
      "id": "ANC_0065",
      "town_fix_source": "address"
    },
    {
      "name": "通心岗遗址",
      "anchor_type": "不可移动文物",
      "sub_type": "古遗址",
      "era": "新石器时代",
      "protection_level": "市级文物保护单位",
      "address": "丹灶镇良登村委会良登村",
      "town": "丹灶镇",
      "lng": 112.915658,
      "lat": 23.018911,
      "id": "ANC_0066",
      "town_fix_source": "address"
    },
    {
      "name": "方道隆墓",
      "anchor_type": "不可移动文物",
      "sub_type": "古墓葬",
      "era": "元",
      "protection_level": "市级文物保护单位",
      "address": "丹灶镇良登村委会孔边村孔边岗",
      "town": "丹灶镇",
      "lng": 112.921503,
      "lat": 23.025526,
      "id": "ANC_0067",
      "town_fix_source": "address"
    },
    {
      "name": "崔氏大宗祠",
      "anchor_type": "不可移动文物",
      "sub_type": "古建筑",
      "era": "明嘉靖四十四年（1565）",
      "protection_level": "省级文物保护单位",
      "address": "九江镇万安社区民康路3号对面",
      "town": "九江镇",
      "lng": 113.029806,
      "lat": 22.91457,
      "id": "ANC_0068"
    },
    {
      "name": "九江吴家大院",
      "anchor_type": "不可移动文物",
      "sub_type": "近现代重要史迹及代表性建筑",
      "era": "中华民国",
      "protection_level": "省级文物保护单位",
      "address": "九江镇儒林社区人民路九曲涌旁",
      "town": "九江镇",
      "lng": 113.017758,
      "lat": 22.833102,
      "id": "ANC_0069",
      "town_fix_source": "address"
    },
    {
      "name": "良二千石牌坊",
      "anchor_type": "不可移动文物",
      "sub_type": "古建筑",
      "era": "明万历二十六年（1598）",
      "protection_level": "省级文物保护单位",
      "address": "九江镇下西村委会大稔村北边",
      "town": "九江镇",
      "lng": 113.003731,
      "lat": 22.837996,
      "id": "ANC_0070",
      "town_fix_source": "address"
    },
    {
      "name": "慈悲宫牌坊",
      "anchor_type": "不可移动文物",
      "sub_type": "古建筑",
      "era": "明万历年间",
      "protection_level": "省级文物保护单位",
      "address": "九江镇下西村委会翘南村新龙路探花公园北侧",
      "town": "九江镇",
      "lng": 113.003815,
      "lat": 22.845895,
      "id": "ANC_0071",
      "town_fix_source": "address"
    },
    {
      "name": "烟桥何氏大宗祠",
      "anchor_type": "不可移动文物",
      "sub_type": "古建筑",
      "era": "清嘉庆十九年（1814）",
      "protection_level": "省级文物保护单位",
      "address": "九江镇烟南村委会烟桥村西边",
      "town": "九江镇",
      "lng": 112.959574,
      "lat": 22.872088,
      "id": "ANC_0072",
      "town_fix_source": "address"
    },
    {
      "name": "上东岑局楼",
      "anchor_type": "不可移动文物",
      "sub_type": "近现代重要史迹及代表性建筑",
      "era": "中华民国二十一年（1932）",
      "protection_level": "市级文物保护单位",
      "address": "九江镇上东村委会上东沙村红旗421-422号",
      "town": "九江镇",
      "lng": 113.03,
      "lat": 22.83,
      "id": "ANC_0073",
      "town_fix_source": "address"
    },
    {
      "name": "探花桥",
      "anchor_type": "不可移动文物",
      "sub_type": "古建筑",
      "era": "明-清",
      "protection_level": "市级文物保护单位",
      "address": "九江镇下西村委会翘南村新龙路探花公园北侧",
      "town": "九江镇",
      "lng": 113.0,
      "lat": 22.85,
      "id": "ANC_0074",
      "town_fix_source": "address"
    },
    {
      "name": "魁星塔",
      "anchor_type": "不可移动文物",
      "sub_type": "古建筑",
      "era": "清嘉庆五年（1800）",
      "protection_level": "市级文物保护单位",
      "address": "九江镇下北村委会铁滘村东南方",
      "town": "九江镇",
      "lng": 113.023983,
      "lat": 22.841656,
      "id": "ANC_0075",
      "town_fix_source": "address"
    },
    {
      "name": "三元桥",
      "anchor_type": "不可移动文物",
      "sub_type": "古建筑",
      "era": "清道光年间（1821-1851）",
      "protection_level": "市级文物保护单位",
      "address": "九江镇儒林社区船栏街侧",
      "town": "九江镇",
      "lng": 113.017604,
      "lat": 22.829592,
      "id": "ANC_0076",
      "town_fix_source": "address"
    },
    {
      "name": "破排角遗址",
      "anchor_type": "不可移动文物",
      "sub_type": "古遗址",
      "era": "南宋",
      "protection_level": "市级文物保护单位",
      "address": "九江镇沙口居委会文昌路沙口社区卫生站对面",
      "town": "九江镇",
      "lng": 113.037232,
      "lat": 22.814643,
      "id": "ANC_0077",
      "town_fix_source": "address"
    },
    {
      "name": "冯氏家族墓",
      "anchor_type": "不可移动文物",
      "sub_type": "古墓葬",
      "era": "宋",
      "protection_level": "市级文物保护单位",
      "address": "九江镇水南村委会迎安大道东边",
      "town": "九江镇",
      "lng": 113.030182,
      "lat": 22.910187,
      "id": "ANC_0078",
      "town_fix_source": "address"
    },
    {
      "name": "朱子襄墓",
      "anchor_type": "不可移动文物",
      "sub_type": "古墓葬",
      "era": "清光绪八年（1882）",
      "protection_level": "市级文物保护单位",
      "address": "九江镇下西村委会太平村龟岗西南麓",
      "town": "九江镇",
      "lng": 113.005299,
      "lat": 22.836108,
      "id": "ANC_0079",
      "town_fix_source": "address"
    },
    {
      "name": "李卓峰墓",
      "anchor_type": "不可移动文物",
      "sub_type": "近现代重要史迹及代表性建筑",
      "era": "1926年",
      "protection_level": "市级文物保护单位",
      "address": "九江镇南方村委会忠良岗",
      "town": "九江镇",
      "lng": 113.017187,
      "lat": 22.825344,
      "id": "ANC_0080",
      "town_fix_source": "address"
    },
    {
      "name": "仙岗村古井(蟹泉仙井)",
      "anchor_type": "文化景观",
      "sub_type": "",
      "era": "",
      "protection_level": "",
      "address": "",
      "town": "丹灶镇",
      "lng": 112.89,
      "lat": 23.04,
      "id": "ANC_0117"
    },
    {
      "name": "西城圩市建筑群",
      "anchor_type": "文化景观",
      "sub_type": "",
      "era": "",
      "protection_level": "",
      "address": "",
      "town": "丹灶镇",
      "lng": 112.89,
      "lat": 23.03,
      "id": "ANC_0118"
    },
    {
      "name": "大岗民居",
      "anchor_type": "文化景观",
      "sub_type": "",
      "era": "",
      "protection_level": "",
      "address": "",
      "town": "丹灶镇",
      "lng": 0,
      "lat": 0,
      "id": "ANC_0119"
    },
    {
      "name": "苏州银河",
      "anchor_type": "文化景观",
      "sub_type": "",
      "era": "",
      "protection_level": "",
      "address": "",
      "town": "丹灶镇",
      "lng": 112.91,
      "lat": 23.01,
      "id": "ANC_0120"
    },
    {
      "name": "塱心码头",
      "anchor_type": "文化景观",
      "sub_type": "",
      "era": "",
      "protection_level": "",
      "address": "",
      "town": "西樵镇",
      "lng": 112.92,
      "lat": 22.99,
      "id": "ANC_0121"
    },
    {
      "name": "松塘月池及古祠堂群",
      "anchor_type": "文化景观",
      "sub_type": "",
      "era": "",
      "protection_level": "",
      "address": "",
      "town": "西樵镇",
      "lng": 112.917861,
      "lat": 22.992725,
      "id": "ANC_0122"
    },
    {
      "name": "民乐圩市建筑群/民乐窦",
      "anchor_type": "文化景观",
      "sub_type": "",
      "era": "",
      "protection_level": "",
      "address": "",
      "town": "西樵镇",
      "lng": 112.95,
      "lat": 22.96,
      "id": "ANC_0123"
    },
    {
      "name": "西樵山天湖",
      "anchor_type": "文化景观",
      "sub_type": "",
      "era": "",
      "protection_level": "",
      "address": "",
      "town": "西樵镇",
      "lng": 112.97,
      "lat": 22.93,
      "id": "ANC_0124"
    },
    {
      "name": "禄舟村古街巷",
      "anchor_type": "文化景观",
      "sub_type": "",
      "era": "",
      "protection_level": "",
      "address": "",
      "town": "西樵镇",
      "lng": 112.95,
      "lat": 22.92,
      "id": "ANC_0125"
    },
    {
      "name": "金花庙",
      "anchor_type": "文化景观",
      "sub_type": "",
      "era": "",
      "protection_level": "",
      "address": "",
      "town": "西樵镇",
      "lng": 0,
      "lat": 0,
      "id": "ANC_0126"
    },
    {
      "name": "渔耕粤韵桑基鱼塘",
      "anchor_type": "文化景观",
      "sub_type": "",
      "era": "",
      "protection_level": "",
      "address": "",
      "town": "西樵镇",
      "lng": 112.98,
      "lat": 22.9,
      "id": "ANC_0127"
    },
    {
      "name": "朝山红楼",
      "anchor_type": "文化景观",
      "sub_type": "",
      "era": "",
      "protection_level": "",
      "address": "",
      "town": "西樵镇",
      "lng": 112.98,
      "lat": 22.89,
      "id": "ANC_0128"
    },
    {
      "name": "烟桥村古桥",
      "anchor_type": "文化景观",
      "sub_type": "",
      "era": "",
      "protection_level": "",
      "address": "",
      "town": "九江镇",
      "lng": 112.96,
      "lat": 22.87,
      "id": "ANC_0129"
    },
    {
      "name": "风水百足桥",
      "anchor_type": "文化景观",
      "sub_type": "",
      "era": "",
      "protection_level": "",
      "address": "",
      "town": "九江镇",
      "lng": 112.98,
      "lat": 22.86,
      "id": "ANC_0130"
    },
    {
      "name": "河清码头",
      "anchor_type": "文化景观",
      "sub_type": "",
      "era": "",
      "protection_level": "",
      "address": "",
      "town": "九江镇",
      "lng": 112.94,
      "lat": 22.85,
      "id": "ANC_0131"
    },
    {
      "name": "红棉公园民国建筑群",
      "anchor_type": "文化景观",
      "sub_type": "",
      "era": "",
      "protection_level": "",
      "address": "",
      "town": "九江镇",
      "lng": 113.01,
      "lat": 22.83,
      "id": "ANC_0132"
    },
    {
      "name": "岑局楼",
      "anchor_type": "文化景观",
      "sub_type": "",
      "era": "",
      "protection_level": "",
      "address": "",
      "town": "九江镇",
      "lng": 113.03,
      "lat": 22.83,
      "id": "ANC_0133"
    },
    {
      "name": "中西郑家大院",
      "anchor_type": "文化景观",
      "sub_type": "",
      "era": "",
      "protection_level": "",
      "address": "",
      "town": "九江镇",
      "lng": 113.05,
      "lat": 22.82,
      "id": "ANC_0134"
    },
    {
      "name": "平沙岛",
      "anchor_type": "文化景观",
      "sub_type": "",
      "era": "",
      "protection_level": "",
      "address": "",
      "town": "西樵镇",
      "lng": 112.883901,
      "lat": 22.931463,
      "id": "ANC_0135"
    },
    {
      "name": "西樵镇",
      "anchor_type": "历史文化名村",
      "sub_type": "中国历史文化名镇",
      "era": "",
      "protection_level": "中国历史文化名镇",
      "address": "",
      "town": "西樵镇",
      "lng": 112.99,
      "lat": 22.94,
      "id": "ANC_0136"
    },
    {
      "name": "西樵镇松塘村",
      "anchor_type": "历史文化名村",
      "sub_type": "国家级传统村落",
      "era": "",
      "protection_level": "国家级传统村落",
      "address": "",
      "town": "西樵镇",
      "lng": 112.917861,
      "lat": 22.992725,
      "id": "ANC_0137",
      "town_fix_source": "address"
    },
    {
      "name": "西樵镇简村村",
      "anchor_type": "历史文化名村",
      "sub_type": "广东省历史文化名村",
      "era": "",
      "protection_level": "广东省历史文化名村",
      "address": "",
      "town": "西樵镇",
      "lng": 112.963901,
      "lat": 22.952089,
      "id": "ANC_0138",
      "town_fix_source": "address"
    },
    {
      "name": "西樵镇百西村头村",
      "anchor_type": "历史文化名村",
      "sub_type": "广东省历史文化名村",
      "era": "",
      "protection_level": "广东省历史文化名村",
      "address": "",
      "town": "西樵镇",
      "lng": 112.927552,
      "lat": 22.967856,
      "id": "ANC_0139",
      "town_fix_source": "address"
    },
    {
      "name": "九江镇烟桥烟南村",
      "anchor_type": "历史文化名村",
      "sub_type": "国家级传统村落",
      "era": "",
      "protection_level": "国家级传统村落",
      "address": "",
      "town": "九江镇",
      "lng": 112.965586,
      "lat": 22.87848,
      "id": "ANC_0140",
      "town_fix_source": "address"
    },
    {
      "name": "丹灶镇仙岗村",
      "anchor_type": "历史文化名村",
      "sub_type": "广东省历史文化名村",
      "era": "",
      "protection_level": "广东省历史文化名村",
      "address": "",
      "town": "丹灶镇",
      "lng": 112.891164,
      "lat": 23.046503,
      "id": "ANC_0141",
      "town_fix_source": "address"
    },
    {
      "name": "丹灶镇南沙棋盘村",
      "anchor_type": "历史文化名村",
      "sub_type": "广东省历史文化名村",
      "era": "",
      "protection_level": "广东省历史文化名村",
      "address": "",
      "town": "丹灶镇",
      "lng": 112.9,
      "lat": 23.12,
      "id": "ANC_0142",
      "town_fix_source": "address"
    },
    {
      "name": "丹灶镇仙岗社区",
      "anchor_type": "历史文化名村",
      "sub_type": "国家级传统村落",
      "era": "",
      "protection_level": "国家级传统村落",
      "address": "",
      "town": "丹灶镇",
      "lng": 112.88,
      "lat": 23.05,
      "id": "ANC_0143",
      "town_fix_source": "address"
    },
    {
      "name": "西樵镇百西村",
      "anchor_type": "历史文化名村",
      "sub_type": "省级传统村落",
      "era": "",
      "protection_level": "省级传统村落",
      "address": "",
      "town": "西樵镇",
      "lng": 112.92,
      "lat": 22.96,
      "id": "ANC_0144",
      "town_fix_source": "address"
    },
    {
      "name": "丹灶镇棋盘村",
      "anchor_type": "历史文化名村",
      "sub_type": "省级传统村落",
      "era": "",
      "protection_level": "省级传统村落",
      "address": "",
      "town": "丹灶镇",
      "lng": 112.9,
      "lat": 23.12,
      "id": "ANC_0145",
      "town_fix_source": "address"
    },
    {
      "name": "九江镇烟桥村",
      "anchor_type": "历史文化名村",
      "sub_type": "省级传统村落",
      "era": "",
      "protection_level": "省级传统村落",
      "address": "",
      "town": "九江镇",
      "lng": 112.965586,
      "lat": 22.87848,
      "id": "ANC_0146",
      "town_fix_source": "address"
    },
    {
      "name": "丹灶镇和平村",
      "anchor_type": "历史文化名村",
      "sub_type": "省级传统村落",
      "era": "",
      "protection_level": "省级传统村落",
      "address": "",
      "town": "丹灶镇",
      "lng": 112.940406,
      "lat": 22.971261,
      "id": "ANC_0147",
      "town_fix_source": "address"
    },
    {
      "name": "横江圩",
      "anchor_type": "圩市街区",
      "sub_type": "",
      "era": "",
      "protection_level": "",
      "address": "",
      "town": "丹灶镇",
      "lng": 112.911046,
      "lat": 23.103377,
      "id": "ANC_0148",
      "town_fix_source": "geometry"
    },
    {
      "name": "仙岗市",
      "anchor_type": "圩市街区",
      "sub_type": "",
      "era": "",
      "protection_level": "",
      "address": "",
      "town": "丹灶镇",
      "lng": 112.887988,
      "lat": 23.042004,
      "id": "ANC_0149",
      "town_fix_source": "geometry"
    },
    {
      "name": "西城市",
      "anchor_type": "圩市街区",
      "sub_type": "",
      "era": "",
      "protection_level": "",
      "address": "",
      "town": "丹灶镇",
      "lng": 112.894726,
      "lat": 23.025058,
      "id": "ANC_0150",
      "town_fix_source": "geometry"
    },
    {
      "name": "银河桥市",
      "anchor_type": "圩市街区",
      "sub_type": "",
      "era": "",
      "protection_level": "",
      "address": "",
      "town": "丹灶镇",
      "lng": 112.912351,
      "lat": 23.007691,
      "id": "ANC_0151",
      "town_fix_source": "geometry"
    },
    {
      "name": "竹径圩",
      "anchor_type": "圩市街区",
      "sub_type": "",
      "era": "",
      "protection_level": "",
      "address": "",
      "town": "丹灶镇",
      "lng": 112.914696,
      "lat": 23.026624,
      "id": "ANC_0152",
      "town_fix_source": "geometry"
    },
    {
      "name": "罗行圩",
      "anchor_type": "圩市街区",
      "sub_type": "",
      "era": "",
      "protection_level": "",
      "address": "",
      "town": "丹灶镇",
      "lng": 112.952101,
      "lat": 23.029292,
      "id": "ANC_0153",
      "town_fix_source": "geometry"
    },
    {
      "name": "大岸圩",
      "anchor_type": "圩市街区",
      "sub_type": "",
      "era": "",
      "protection_level": "",
      "address": "",
      "town": "西樵镇",
      "lng": 112.966017,
      "lat": 22.985038,
      "id": "ANC_0154",
      "town_fix_source": "geometry"
    },
    {
      "name": "沙基圩",
      "anchor_type": "圩市街区",
      "sub_type": "",
      "era": "",
      "protection_level": "",
      "address": "",
      "town": "西樵镇",
      "lng": 112.916292,
      "lat": 22.983847,
      "id": "ANC_0155",
      "town_fix_source": "geometry"
    },
    {
      "name": "大岗圩",
      "anchor_type": "圩市街区",
      "sub_type": "",
      "era": "",
      "protection_level": "",
      "address": "",
      "town": "西樵镇",
      "lng": 112.921201,
      "lat": 22.974416,
      "id": "ANC_0156",
      "town_fix_source": "geometry"
    },
    {
      "name": "民乐市",
      "anchor_type": "圩市街区",
      "sub_type": "",
      "era": "",
      "protection_level": "",
      "address": "",
      "town": "西樵镇",
      "lng": 112.953955,
      "lat": 22.959112,
      "id": "ANC_0157",
      "town_fix_source": "geometry"
    },
    {
      "name": "太平圩",
      "anchor_type": "圩市街区",
      "sub_type": "",
      "era": "",
      "protection_level": "",
      "address": "",
      "town": "西樵镇",
      "lng": 112.905097,
      "lat": 22.929496,
      "id": "ANC_0158",
      "town_fix_source": "geometry"
    },
    {
      "name": "官山圩",
      "anchor_type": "圩市街区",
      "sub_type": "",
      "era": "",
      "protection_level": "",
      "address": "",
      "town": "西樵镇",
      "lng": 112.975635,
      "lat": 22.941597,
      "id": "ANC_0159",
      "town_fix_source": "geometry"
    },
    {
      "name": "大桐圩",
      "anchor_type": "圩市街区",
      "sub_type": "",
      "era": "",
      "protection_level": "",
      "address": "",
      "town": "西樵镇",
      "lng": 112.989197,
      "lat": 22.88795,
      "id": "ANC_0160",
      "town_fix_source": "geometry"
    },
    {
      "name": "河清圩",
      "anchor_type": "圩市街区",
      "sub_type": "",
      "era": "",
      "protection_level": "",
      "address": "",
      "town": "九江镇",
      "lng": 112.942874,
      "lat": 22.849496,
      "id": "ANC_0161",
      "town_fix_source": "geometry"
    },
    {
      "name": "大伸市",
      "anchor_type": "圩市街区",
      "sub_type": "",
      "era": "",
      "protection_level": "",
      "address": "",
      "town": "九江镇",
      "lng": 113.006027,
      "lat": 22.847445,
      "id": "ANC_0162",
      "town_fix_source": "geometry"
    },
    {
      "name": "九江圩",
      "anchor_type": "圩市街区",
      "sub_type": "",
      "era": "",
      "protection_level": "",
      "address": "",
      "town": "九江镇",
      "lng": 113.011151,
      "lat": 22.833356,
      "id": "ANC_0163",
      "town_fix_source": "geometry"
    },
    {
      "name": "大谷市",
      "anchor_type": "圩市街区",
      "sub_type": "",
      "era": "",
      "protection_level": "",
      "address": "",
      "town": "九江镇",
      "lng": 113.042988,
      "lat": 22.828252,
      "id": "ANC_0164",
      "town_fix_source": "geometry"
    },
    {
      "name": "沙口圩",
      "anchor_type": "圩市街区",
      "sub_type": "",
      "era": "",
      "protection_level": "",
      "address": "",
      "town": "九江镇",
      "lng": 113.0361,
      "lat": 22.813074,
      "id": "ANC_0165",
      "town_fix_source": "geometry"
    },
    {
      "name": "狮舞（广东醒狮）",
      "anchor_type": "非遗项目",
      "sub_type": "传统舞蹈",
      "era": "",
      "protection_level": "国家级非物质文化遗产代表性项目",
      "address": "南海区西樵镇",
      "town": "西樵镇",
      "id": "NH_0001",
      "lng": 112.88271,
      "lat": 22.878482,
      "coord_source": "polygon_sample"
    },
    {
      "name": "十番音乐（佛山十番）",
      "anchor_type": "非遗项目",
      "sub_type": "传统音乐",
      "era": "",
      "protection_level": "国家级非物质文化遗产代表性项目",
      "address": "南海区桂城街道",
      "town": "桂城街道",
      "id": "NH_0002",
      "lng": 113.241907,
      "lat": 22.989017,
      "coord_source": "polygon_sample"
    },
    {
      "name": "官窑生菜会",
      "anchor_type": "非遗项目",
      "sub_type": "民俗",
      "era": "",
      "protection_level": "省级非物质文化遗产代表性项目",
      "address": "南海区狮山镇",
      "town": "狮山镇",
      "id": "NH_0003",
      "lng": 113.079708,
      "lat": 23.222817,
      "coord_source": "geocoded"
    },
    {
      "name": "灯会（乐安花灯会）",
      "anchor_type": "非遗项目",
      "sub_type": "民俗",
      "era": "",
      "protection_level": "省级非物质文化遗产代表性项目",
      "address": "南海区桂城街道",
      "town": "桂城街道",
      "id": "NH_0004",
      "lng": 113.11961,
      "lat": 23.027649,
      "coord_source": "name_hint"
    },
    {
      "name": "九江双蒸酒酿制技艺",
      "anchor_type": "非遗项目",
      "sub_type": "传统技艺",
      "era": "",
      "protection_level": "省级非物质文化遗产代表性项目",
      "address": "南海区九江镇",
      "town": "九江镇",
      "id": "NH_0005",
      "lng": 112.997593,
      "lat": 22.857027,
      "coord_source": "name_hint"
    },
    {
      "name": "赛龙舟（九江传统龙舟）",
      "anchor_type": "非遗项目",
      "sub_type": "传统体育",
      "era": "",
      "protection_level": "省级非物质文化遗产代表性项目",
      "address": "南海区九江镇",
      "town": "九江镇",
      "id": "NH_0006",
      "lng": 112.996633,
      "lat": 22.855494,
      "coord_source": "name_hint"
    },
    {
      "name": "端午节（盐步老龙礼俗）",
      "anchor_type": "非遗项目",
      "sub_type": "民俗",
      "era": "",
      "protection_level": "省级非物质文化遗产代表性项目",
      "address": "南海区大沥镇",
      "town": "大沥镇",
      "id": "NH_0007",
      "lng": 113.15967,
      "lat": 23.084058,
      "coord_source": "geocoded"
    },
    {
      "name": "咏春拳（叶问宗支）",
      "anchor_type": "非遗项目",
      "sub_type": "传统体育",
      "era": "",
      "protection_level": "省级非物质文化遗产代表性项目",
      "address": "南海区桂城街道",
      "town": "桂城街道",
      "id": "NH_0008",
      "lng": 113.206355,
      "lat": 23.034163,
      "coord_source": "polygon_sample"
    },
    {
      "name": "藤编（大沥）",
      "anchor_type": "非遗项目",
      "sub_type": "传统技艺",
      "era": "",
      "protection_level": "省级非物质文化遗产代表性项目",
      "address": "南海区大沥镇",
      "town": "大沥镇",
      "id": "NH_0009",
      "lng": 113.106804,
      "lat": 23.128507,
      "coord_source": "polygon_sample"
    },
    {
      "name": "藤编（里水）",
      "anchor_type": "非遗项目",
      "sub_type": "传统技艺",
      "era": "",
      "protection_level": "省级非物质文化遗产代表性项目",
      "address": "南海区里水镇",
      "town": "里水镇",
      "id": "NH_0010",
      "lng": 113.199844,
      "lat": 23.193372,
      "coord_source": "polygon_sample"
    },
    {
      "name": "金箔锻造技艺",
      "anchor_type": "非遗项目",
      "sub_type": "传统技艺",
      "era": "",
      "protection_level": "省级非物质文化遗产代表性项目",
      "address": "南海区大沥镇",
      "town": "大沥镇",
      "id": "NH_0011",
      "lng": 113.191017,
      "lat": 23.130139,
      "coord_source": "polygon_sample"
    },
    {
      "name": "庙会（大仙诞庙会）",
      "anchor_type": "非遗项目",
      "sub_type": "民俗",
      "era": "",
      "protection_level": "省级非物质文化遗产代表性项目",
      "address": "南海区西樵镇",
      "town": "西樵镇",
      "id": "NH_0012",
      "lng": 112.978674,
      "lat": 22.973218,
      "coord_source": "polygon_sample"
    },
    {
      "name": "粤曲",
      "anchor_type": "非遗项目",
      "sub_type": "曲艺",
      "era": "",
      "protection_level": "省级非物质文化遗产代表性项目",
      "address": "南海区桂城街道",
      "town": "桂城街道",
      "id": "NH_0013",
      "lng": 113.14645,
      "lat": 23.022247,
      "coord_source": "geocoded"
    },
    {
      "name": "糕点制作技艺（九江煎堆制作技艺）",
      "anchor_type": "非遗项目",
      "sub_type": "传统技艺",
      "era": "",
      "protection_level": "省级非物质文化遗产代表性项目",
      "address": "南海区九江镇",
      "town": "九江镇",
      "id": "NH_0014",
      "lng": 112.999181,
      "lat": 22.859366,
      "coord_source": "name_hint"
    },
    {
      "name": "九江鱼花生产习俗",
      "anchor_type": "非遗项目",
      "sub_type": "民俗",
      "era": "",
      "protection_level": "省级非物质文化遗产代表性项目",
      "address": "南海区九江镇",
      "town": "九江镇",
      "id": "NH_0015",
      "lng": 112.998393,
      "lat": 22.85726,
      "coord_source": "name_hint"
    },
    {
      "name": "家具制作技艺（广式家具制作技艺）",
      "anchor_type": "非遗项目",
      "sub_type": "传统技艺",
      "era": "",
      "protection_level": "省级非物质文化遗产代表性项目",
      "address": "南海区九江镇",
      "town": "九江镇",
      "id": "NH_0016",
      "lng": 113.015887,
      "lat": 22.807144,
      "coord_source": "polygon_sample"
    },
    {
      "name": "洪拳（南海洪拳）",
      "anchor_type": "非遗项目",
      "sub_type": "传统体育",
      "era": "",
      "protection_level": "省级非物质文化遗产代表性项目",
      "address": "南海区西樵镇",
      "town": "西樵镇",
      "id": "NH_0017",
      "lng": 112.947754,
      "lat": 22.90497,
      "coord_source": "polygon_sample"
    },
    {
      "name": "龙舟说唱",
      "anchor_type": "非遗项目",
      "sub_type": "曲艺",
      "era": "",
      "protection_level": "市级非物质文化遗产代表性项目",
      "address": "南海区桂城街道",
      "town": "桂城街道",
      "id": "NH_0018",
      "lng": 113.165313,
      "lat": 23.001099,
      "coord_source": "polygon_sample"
    },
    {
      "name": "白眉拳",
      "anchor_type": "非遗项目",
      "sub_type": "传统体育",
      "era": "",
      "protection_level": "市级非物质文化遗产代表性项目",
      "address": "南海区里水镇",
      "town": "里水镇",
      "id": "NH_0019",
      "lng": 113.156753,
      "lat": 23.243957,
      "coord_source": "polygon_sample"
    },
    {
      "name": "大头佛",
      "anchor_type": "非遗项目",
      "sub_type": "传统舞蹈",
      "era": "",
      "protection_level": "市级非物质文化遗产代表性项目",
      "address": "南海区西樵镇",
      "town": "西樵镇",
      "id": "NH_0020",
      "lng": 112.933554,
      "lat": 22.964779,
      "coord_source": "polygon_sample"
    },
    {
      "name": "南海灰塑",
      "anchor_type": "非遗项目",
      "sub_type": "传统美术",
      "era": "",
      "protection_level": "市级非物质文化遗产代表性项目",
      "address": "南海区狮山镇",
      "town": "狮山镇",
      "id": "NH_0021",
      "lng": 113.034903,
      "lat": 23.099202,
      "coord_source": "geocoded"
    },
    {
      "name": "三山咸水歌",
      "anchor_type": "非遗项目",
      "sub_type": "传统音乐",
      "era": "",
      "protection_level": "市级非物质文化遗产代表性项目",
      "address": "南海区桂城街道",
      "town": "桂城街道",
      "id": "NH_0022",
      "lng": 113.157283,
      "lat": 23.006839,
      "coord_source": "polygon_sample"
    },
    {
      "name": "西樵传统缫丝技艺",
      "anchor_type": "非遗项目",
      "sub_type": "传统技艺",
      "era": "",
      "protection_level": "市级非物质文化遗产代表性项目",
      "address": "南海区西樵镇",
      "town": "西樵镇",
      "id": "NH_0023",
      "lng": 112.944555,
      "lat": 22.948215,
      "coord_source": "name_hint"
    },
    {
      "name": "麦边舞龙",
      "anchor_type": "非遗项目",
      "sub_type": "传统舞蹈",
      "era": "",
      "protection_level": "市级非物质文化遗产代表性项目",
      "address": "南海区里水镇",
      "town": "里水镇",
      "id": "NH_0024",
      "lng": 113.188577,
      "lat": 23.189304,
      "coord_source": "polygon_sample"
    },
    {
      "name": "南海竹编",
      "anchor_type": "非遗项目",
      "sub_type": "传统技艺",
      "era": "",
      "protection_level": "市级非物质文化遗产代表性项目",
      "address": "南海区丹灶镇",
      "town": "丹灶镇",
      "id": "NH_0025",
      "lng": 112.938913,
      "lat": 23.046543,
      "coord_source": "polygon_sample"
    },
    {
      "name": "西樵大饼制作技艺",
      "anchor_type": "非遗项目",
      "sub_type": "传统技艺",
      "era": "",
      "protection_level": "市级非物质文化遗产代表性项目",
      "address": "南海区西樵镇",
      "town": "西樵镇",
      "id": "NH_0026",
      "lng": 112.948073,
      "lat": 22.945794,
      "coord_source": "name_hint"
    },
    {
      "name": "香云纱（坯纱）织造技艺",
      "anchor_type": "非遗项目",
      "sub_type": "传统技艺",
      "era": "",
      "protection_level": "市级非物质文化遗产代表性项目",
      "address": "南海区西樵镇",
      "town": "西樵镇",
      "id": "NH_0027",
      "lng": 112.934351,
      "lat": 22.885875,
      "coord_source": "polygon_sample"
    },
    {
      "name": "九江灯谜",
      "anchor_type": "非遗项目",
      "sub_type": "民俗",
      "era": "",
      "protection_level": "市级非物质文化遗产代表性项目",
      "address": "南海区九江镇",
      "town": "九江镇",
      "id": "NH_0028",
      "lng": 112.999423,
      "lat": 22.858989,
      "coord_source": "name_hint"
    },
    {
      "name": "丹灶葛洪炼丹传说",
      "anchor_type": "非遗项目",
      "sub_type": "民间文学",
      "era": "",
      "protection_level": "市级非物质文化遗产代表性项目",
      "address": "南海区丹灶镇",
      "town": "丹灶镇",
      "id": "NH_0029",
      "lng": 112.919229,
      "lat": 23.051148,
      "coord_source": "geocoded"
    },
    {
      "name": "华岳心意六合八法拳",
      "anchor_type": "非遗项目",
      "sub_type": "传统体育",
      "era": "",
      "protection_level": "市级非物质文化遗产代表性项目",
      "address": "南海区大沥镇",
      "town": "大沥镇",
      "id": "NH_0030",
      "lng": 113.130838,
      "lat": 23.086751,
      "coord_source": "polygon_sample"
    },
    {
      "name": "叠滘弯道赛龙船",
      "anchor_type": "非遗项目",
      "sub_type": "传统体育",
      "era": "",
      "protection_level": "市级非物质文化遗产代表性项目",
      "address": "南海区桂城街道",
      "town": "桂城街道",
      "id": "NH_0031",
      "lng": 113.174488,
      "lat": 23.028048,
      "coord_source": "name_hint"
    },
    {
      "name": "祠堂祭祖（平地黄氏冬祭）",
      "anchor_type": "非遗项目",
      "sub_type": "民俗",
      "era": "",
      "protection_level": "市级非物质文化遗产代表性项目",
      "address": "南海区大沥镇",
      "town": "大沥镇",
      "id": "NH_0032",
      "lng": 113.183575,
      "lat": 23.109645,
      "coord_source": "polygon_sample"
    },
    {
      "name": "黄岐龙母诞",
      "anchor_type": "非遗项目",
      "sub_type": "民俗",
      "era": "",
      "protection_level": "市级非物质文化遗产代表性项目",
      "address": "南海区大沥镇",
      "town": "大沥镇",
      "id": "NH_0033",
      "lng": 113.176818,
      "lat": 23.121408,
      "coord_source": "name_hint"
    },
    {
      "name": "烧番塔（松塘）",
      "anchor_type": "非遗项目",
      "sub_type": "民俗",
      "era": "",
      "protection_level": "市级非物质文化遗产代表性项目",
      "address": "南海区西樵镇",
      "town": "西樵镇",
      "id": "NH_0034",
      "lng": 112.949481,
      "lat": 22.968146,
      "coord_source": "name_hint"
    },
    {
      "name": "赤山跳火光习俗",
      "anchor_type": "非遗项目",
      "sub_type": "民俗",
      "era": "",
      "protection_level": "市级非物质文化遗产代表性项目",
      "address": "南海区桂城街道",
      "town": "桂城街道",
      "id": "NH_0035",
      "lng": 113.165355,
      "lat": 23.066804,
      "coord_source": "name_hint"
    },
    {
      "name": "唢呐制作技艺",
      "anchor_type": "非遗项目",
      "sub_type": "传统技艺",
      "era": "",
      "protection_level": "市级非物质文化遗产代表性项目",
      "address": "南海区桂城街道",
      "town": "桂城街道",
      "id": "NH_0036",
      "lng": 113.211025,
      "lat": 23.033377,
      "coord_source": "polygon_sample"
    },
    {
      "name": "平洲传统玉器制作技艺",
      "anchor_type": "非遗项目",
      "sub_type": "传统技艺",
      "era": "",
      "protection_level": "市级非物质文化遗产代表性项目",
      "address": "南海区桂城街道",
      "town": "桂城街道",
      "id": "NH_0037",
      "lng": 113.201638,
      "lat": 23.029502,
      "coord_source": "geocoded"
    },
    {
      "name": "广绣（石石肯）",
      "anchor_type": "非遗项目",
      "sub_type": "传统美术",
      "era": "",
      "protection_level": "市级非物质文化遗产代表性项目",
      "address": "南海区桂城街道",
      "town": "桂城街道",
      "id": "NH_0038",
      "lng": 113.151834,
      "lat": 23.060705,
      "coord_source": "name_hint"
    },
    {
      "name": "佛山十番（同乐堂十番）",
      "anchor_type": "非遗项目",
      "sub_type": "传统音乐",
      "era": "",
      "protection_level": "市级非物质文化遗产代表性项目",
      "address": "南海区桂城街道",
      "town": "桂城街道",
      "id": "NH_0039",
      "lng": 113.239512,
      "lat": 23.00641,
      "coord_source": "polygon_sample"
    },
    {
      "name": "北村生菜会",
      "anchor_type": "非遗项目",
      "sub_type": "民俗",
      "era": "",
      "protection_level": "市级非物质文化遗产代表性项目",
      "address": "南海区大沥镇",
      "town": "大沥镇",
      "id": "NH_0040",
      "lng": 113.144427,
      "lat": 23.08216,
      "coord_source": "polygon_sample"
    },
    {
      "name": "烧番塔（仙岗）",
      "anchor_type": "非遗项目",
      "sub_type": "民俗",
      "era": "",
      "protection_level": "市级非物质文化遗产代表性项目",
      "address": "南海区丹灶镇",
      "town": "丹灶镇",
      "id": "NH_0041",
      "lng": 112.890063,
      "lat": 23.043853,
      "coord_source": "name_hint"
    },
    {
      "name": "周家拳",
      "anchor_type": "非遗项目",
      "sub_type": "传统体育",
      "era": "",
      "protection_level": "市级非物质文化遗产代表性项目",
      "address": "南海区九江镇",
      "town": "九江镇",
      "id": "NH_0042",
      "lng": 112.954252,
      "lat": 22.882018,
      "coord_source": "polygon_sample"
    },
    {
      "name": "九江鱼筛编织技艺",
      "anchor_type": "非遗项目",
      "sub_type": "传统技艺",
      "era": "",
      "protection_level": "市级非物质文化遗产代表性项目",
      "address": "南海区九江镇",
      "town": "九江镇",
      "id": "NH_0043",
      "lng": 112.999545,
      "lat": 22.855264,
      "coord_source": "name_hint"
    },
    {
      "name": "粤剧",
      "anchor_type": "非遗项目",
      "sub_type": "传统戏剧",
      "era": "",
      "protection_level": "区级非物质文化遗产代表性项目",
      "address": "南海区西樵镇",
      "town": "西樵镇",
      "id": "NH_0044",
      "lng": 112.970627,
      "lat": 22.937616,
      "coord_source": "polygon_sample"
    },
    {
      "name": "佛鹤狮头制作",
      "anchor_type": "非遗项目",
      "sub_type": "传统技艺",
      "era": "",
      "protection_level": "区级非物质文化遗产代表性项目",
      "address": "南海区桂城街道",
      "town": "桂城街道",
      "id": "NH_0045",
      "lng": 113.225245,
      "lat": 23.032725,
      "coord_source": "polygon_sample"
    },
    {
      "name": "赤坎盲公话",
      "anchor_type": "非遗项目",
      "sub_type": "民间文学",
      "era": "",
      "protection_level": "区级非物质文化遗产代表性项目",
      "address": "南海区大沥镇",
      "town": "大沥镇",
      "id": "NH_0046",
      "lng": 113.141029,
      "lat": 23.124052,
      "coord_source": "polygon_sample"
    },
    {
      "name": "南海农谚",
      "anchor_type": "非遗项目",
      "sub_type": "民间文学",
      "era": "",
      "protection_level": "区级非物质文化遗产代表性项目",
      "address": "南海区桂城街道",
      "town": "桂城街道",
      "id": "NH_0047",
      "lng": 113.149888,
      "lat": 23.066444,
      "coord_source": "polygon_sample"
    },
    {
      "name": "西樵山传说",
      "anchor_type": "非遗项目",
      "sub_type": "民间文学",
      "era": "",
      "protection_level": "区级非物质文化遗产代表性项目",
      "address": "南海区西樵镇",
      "town": "西樵镇",
      "id": "NH_0048",
      "lng": 112.945616,
      "lat": 22.944559,
      "coord_source": "name_hint"
    },
    {
      "name": "里水毛巾织造技艺",
      "anchor_type": "非遗项目",
      "sub_type": "传统技艺",
      "era": "",
      "protection_level": "区级非物质文化遗产代表性项目",
      "address": "南海区里水镇",
      "town": "里水镇",
      "id": "NH_0049",
      "lng": 113.141598,
      "lat": 23.266378,
      "coord_source": "polygon_sample"
    },
    {
      "name": "南海醒狮（采青技艺）",
      "anchor_type": "非遗项目",
      "sub_type": "传统舞蹈",
      "era": "",
      "protection_level": "区级非物质文化遗产代表性项目",
      "address": "南海区西樵镇",
      "town": "西樵镇",
      "id": "NH_0050",
      "lng": 112.91212,
      "lat": 22.933538,
      "coord_source": "polygon_sample"
    },
    {
      "name": "花灯制作技艺",
      "anchor_type": "非遗项目",
      "sub_type": "传统技艺",
      "era": "",
      "protection_level": "区级非物质文化遗产代表性项目",
      "address": "南海区桂城街道",
      "town": "桂城街道",
      "id": "NH_0051",
      "lng": 113.160604,
      "lat": 23.038438,
      "coord_source": "polygon_sample"
    },
    {
      "name": "西联村神诞",
      "anchor_type": "非遗项目",
      "sub_type": "民俗",
      "era": "",
      "protection_level": "区级非物质文化遗产代表性项目",
      "address": "南海区桂城街道",
      "town": "桂城街道",
      "id": "NH_0052",
      "lng": 113.147651,
      "lat": 23.058601,
      "coord_source": "name_hint"
    },
    {
      "name": "简村北帝庙会",
      "anchor_type": "非遗项目",
      "sub_type": "民俗",
      "era": "",
      "protection_level": "区级非物质文化遗产代表性项目",
      "address": "南海区狮山镇",
      "town": "狮山镇",
      "id": "NH_0053",
      "lng": 112.947029,
      "lat": 23.180213,
      "coord_source": "polygon_sample"
    },
    {
      "name": "松塘村孔子诞",
      "anchor_type": "非遗项目",
      "sub_type": "民俗",
      "era": "",
      "protection_level": "区级非物质文化遗产代表性项目",
      "address": "南海区西樵镇",
      "town": "西樵镇",
      "id": "NH_0054",
      "lng": 112.945571,
      "lat": 22.966162,
      "coord_source": "name_hint"
    },
    {
      "name": "松塘村'出色'巡游",
      "anchor_type": "非遗项目",
      "sub_type": "民俗",
      "era": "",
      "protection_level": "区级非物质文化遗产代表性项目",
      "address": "南海区西樵镇",
      "town": "西樵镇",
      "id": "NH_0055",
      "lng": 112.949178,
      "lat": 22.968355,
      "coord_source": "name_hint"
    },
    {
      "name": "大沥锦龙盛会",
      "anchor_type": "非遗项目",
      "sub_type": "民俗",
      "era": "",
      "protection_level": "区级非物质文化遗产代表性项目",
      "address": "南海区大沥镇",
      "town": "大沥镇",
      "id": "NH_0056",
      "lng": 113.090217,
      "lat": 23.110649,
      "coord_source": "polygon_sample"
    },
    {
      "name": "大沥狮子会",
      "anchor_type": "非遗项目",
      "sub_type": "民俗",
      "era": "",
      "protection_level": "区级非物质文化遗产代表性项目",
      "address": "南海区大沥镇",
      "town": "大沥镇",
      "id": "NH_0057",
      "lng": 113.134085,
      "lat": 23.114709,
      "coord_source": "polygon_sample"
    },
    {
      "name": "狮中冥王诞",
      "anchor_type": "非遗项目",
      "sub_type": "民俗",
      "era": "",
      "protection_level": "区级非物质文化遗产代表性项目",
      "address": "南海区桂城街道",
      "town": "桂城街道",
      "id": "NH_0058",
      "lng": 113.147145,
      "lat": 23.055867,
      "coord_source": "name_hint"
    },
    {
      "name": "平地观音诞",
      "anchor_type": "非遗项目",
      "sub_type": "民俗",
      "era": "",
      "protection_level": "区级非物质文化遗产代表性项目",
      "address": "南海区大沥镇",
      "town": "大沥镇",
      "id": "NH_0059",
      "lng": 113.131271,
      "lat": 23.100293,
      "coord_source": "polygon_sample"
    },
    {
      "name": "南海鼓乐",
      "anchor_type": "非遗项目",
      "sub_type": "传统音乐",
      "era": "",
      "protection_level": "区级非物质文化遗产代表性项目",
      "address": "南海区桂城街道",
      "town": "桂城街道",
      "id": "NH_0060",
      "lng": 113.237431,
      "lat": 23.004958,
      "coord_source": "polygon_sample"
    },
    {
      "name": "万石辘木马",
      "anchor_type": "非遗项目",
      "sub_type": "传统体育",
      "era": "",
      "protection_level": "区级非物质文化遗产代表性项目",
      "address": "南海区桂城街道",
      "town": "桂城街道",
      "id": "NH_0061",
      "lng": 113.128451,
      "lat": 23.049743,
      "coord_source": "name_hint"
    },
    {
      "name": "万石舞青火龙",
      "anchor_type": "非遗项目",
      "sub_type": "传统舞蹈",
      "era": "",
      "protection_level": "区级非物质文化遗产代表性项目",
      "address": "南海区桂城街道",
      "town": "桂城街道",
      "id": "NH_0062",
      "lng": 113.129609,
      "lat": 23.048893,
      "coord_source": "name_hint"
    },
    {
      "name": "南海广式旺阁酱油酿造技艺",
      "anchor_type": "非遗项目",
      "sub_type": "传统技艺",
      "era": "",
      "protection_level": "区级非物质文化遗产代表性项目",
      "address": "南海区桂城街道",
      "town": "桂城街道",
      "id": "NH_0063",
      "lng": 113.14765,
      "lat": 23.071455,
      "coord_source": "polygon_sample"
    },
    {
      "name": "西樵白眉武术",
      "anchor_type": "非遗项目",
      "sub_type": "传统体育",
      "era": "",
      "protection_level": "区级非物质文化遗产代表性项目",
      "address": "南海区西樵镇",
      "town": "西樵镇",
      "id": "NH_0064",
      "lng": 112.945716,
      "lat": 22.947807,
      "coord_source": "name_hint"
    },
    {
      "name": "龙形拳",
      "anchor_type": "非遗项目",
      "sub_type": "传统体育",
      "era": "",
      "protection_level": "区级非物质文化遗产代表性项目",
      "address": "南海区桂城街道",
      "town": "桂城街道",
      "id": "NH_0065",
      "lng": 113.235527,
      "lat": 22.996841,
      "coord_source": "polygon_sample"
    },
    {
      "name": "沙皮狗斗狗习俗",
      "anchor_type": "非遗项目",
      "sub_type": "民俗",
      "era": "",
      "protection_level": "区级非物质文化遗产代表性项目",
      "address": "南海区大沥镇",
      "town": "大沥镇",
      "id": "NH_0066",
      "lng": 113.14242,
      "lat": 23.086121,
      "coord_source": "polygon_sample"
    },
    {
      "name": "大头佛（民乐大头佛）",
      "anchor_type": "非遗项目",
      "sub_type": "传统舞蹈",
      "era": "",
      "protection_level": "区级非物质文化遗产代表性项目",
      "address": "南海区西樵镇",
      "town": "西樵镇",
      "id": "NH_0067",
      "lng": 112.915169,
      "lat": 22.91585,
      "coord_source": "polygon_sample"
    },
    {
      "name": "传统龙舟（丹灶扒龙舟）",
      "anchor_type": "非遗项目",
      "sub_type": "传统体育",
      "era": "",
      "protection_level": "区级非物质文化遗产代表性项目",
      "address": "南海区丹灶镇",
      "town": "丹灶镇",
      "id": "NH_0068",
      "lng": 112.897287,
      "lat": 23.039477,
      "coord_source": "name_hint"
    },
    {
      "name": "汉字书法（康体）",
      "anchor_type": "非遗项目",
      "sub_type": "传统美术",
      "era": "",
      "protection_level": "区级非物质文化遗产代表性项目",
      "address": "南海区丹灶镇",
      "town": "丹灶镇",
      "id": "NH_0069",
      "lng": 112.926366,
      "lat": 23.099735,
      "coord_source": "polygon_sample"
    },
    {
      "name": "苏村拜斗",
      "anchor_type": "非遗项目",
      "sub_type": "民俗",
      "era": "",
      "protection_level": "区级非物质文化遗产代表性项目",
      "address": "南海区大沥镇",
      "town": "大沥镇",
      "id": "NH_0070",
      "lng": 113.097988,
      "lat": 23.095485,
      "coord_source": "polygon_sample"
    },
    {
      "name": "木作工具制作技艺",
      "anchor_type": "非遗项目",
      "sub_type": "传统技艺",
      "era": "",
      "protection_level": "区级非物质文化遗产代表性项目",
      "address": "南海区桂城街道",
      "town": "桂城街道",
      "id": "NH_0071",
      "lng": 113.190553,
      "lat": 23.054176,
      "coord_source": "polygon_sample"
    },
    {
      "name": "百西村头村六祖诞",
      "anchor_type": "非遗项目",
      "sub_type": "民俗",
      "era": "",
      "protection_level": "区级非物质文化遗产代表性项目",
      "address": "南海区丹灶镇",
      "town": "丹灶镇",
      "id": "NH_0072",
      "lng": 112.919705,
      "lat": 23.121868,
      "coord_source": "polygon_sample"
    },
    {
      "name": "南海牛皮鼓制作技艺",
      "anchor_type": "非遗项目",
      "sub_type": "传统技艺",
      "era": "",
      "protection_level": "区级非物质文化遗产代表性项目",
      "address": "南海区桂城街道",
      "town": "桂城街道",
      "id": "NH_0073",
      "lng": 113.134096,
      "lat": 23.075152,
      "coord_source": "polygon_sample"
    },
    {
      "name": "南海剪纸",
      "anchor_type": "非遗项目",
      "sub_type": "传统美术",
      "era": "",
      "protection_level": "区级非物质文化遗产代表性项目",
      "address": "南海区桂城街道",
      "town": "桂城街道",
      "id": "NH_0074",
      "lng": 113.198307,
      "lat": 23.047004,
      "coord_source": "polygon_sample"
    },
    {
      "name": "鹰爪拳",
      "anchor_type": "非遗项目",
      "sub_type": "传统体育",
      "era": "",
      "protection_level": "区级非物质文化遗产代表性项目",
      "address": "南海区九江镇",
      "town": "九江镇",
      "id": "NH_0075",
      "lng": 112.999185,
      "lat": 22.879548,
      "coord_source": "polygon_sample"
    },
    {
      "name": "蔡李佛拳",
      "anchor_type": "非遗项目",
      "sub_type": "传统体育",
      "era": "",
      "protection_level": "区级非物质文化遗产代表性项目",
      "address": "南海区桂城街道",
      "town": "桂城街道",
      "id": "NH_0076",
      "lng": 113.172509,
      "lat": 23.037981,
      "coord_source": "polygon_sample"
    },
    {
      "name": "水菱角制作技艺",
      "anchor_type": "非遗项目",
      "sub_type": "传统技艺",
      "era": "",
      "protection_level": "区级非物质文化遗产代表性项目",
      "address": "南海区西樵镇",
      "town": "西樵镇",
      "id": "NH_0077",
      "lng": 112.927392,
      "lat": 23.011555,
      "coord_source": "polygon_sample"
    },
    {
      "name": "广式烧腊制作技艺",
      "anchor_type": "非遗项目",
      "sub_type": "传统技艺",
      "era": "",
      "protection_level": "区级非物质文化遗产代表性项目",
      "address": "南海区桂城街道",
      "town": "桂城街道",
      "id": "NH_0078",
      "lng": 113.140967,
      "lat": 23.051043,
      "coord_source": "polygon_sample"
    },
    {
      "name": "中医传统制剂方法（冯了性传统膏方制作技艺）",
      "anchor_type": "非遗项目",
      "sub_type": "传统医药",
      "era": "",
      "protection_level": "区级非物质文化遗产代表性项目",
      "address": "南海区桂城街道",
      "town": "桂城街道",
      "id": "NH_0079",
      "lng": 113.209554,
      "lat": 23.010018,
      "coord_source": "polygon_sample"
    },
    {
      "name": "咸鸭蛋腌制技艺（南海）",
      "anchor_type": "非遗项目",
      "sub_type": "传统技艺",
      "era": "",
      "protection_level": "区级非物质文化遗产代表性项目",
      "address": "南海区桂城街道",
      "town": "桂城街道",
      "id": "NH_0080",
      "lng": 113.157389,
      "lat": 23.054559,
      "coord_source": "polygon_sample"
    },
    {
      "name": "冯伯成传说",
      "anchor_type": "非遗项目",
      "sub_type": "民间文学",
      "era": "",
      "protection_level": "区级非物质文化遗产代表性项目",
      "address": "南海区桂城街道",
      "town": "桂城街道",
      "id": "NH_0081",
      "lng": 113.149909,
      "lat": 23.07244,
      "coord_source": "polygon_sample"
    },
    {
      "name": "五郎八卦棍（鲁岗谢家）",
      "anchor_type": "非遗项目",
      "sub_type": "传统体育",
      "era": "",
      "protection_level": "区级非物质文化遗产代表性项目",
      "address": "南海区大沥镇",
      "town": "大沥镇",
      "id": "NH_0082",
      "lng": 113.126826,
      "lat": 23.079801,
      "coord_source": "polygon_sample"
    },
    {
      "name": "洪拳功夫推拿",
      "anchor_type": "非遗项目",
      "sub_type": "传统医药",
      "era": "",
      "protection_level": "区级非物质文化遗产代表性项目",
      "address": "南海区西樵镇",
      "town": "西樵镇",
      "id": "NH_0083",
      "lng": 112.983474,
      "lat": 22.968319,
      "coord_source": "polygon_sample"
    },
    {
      "name": "广式月饼制作技艺（南海）",
      "anchor_type": "非遗项目",
      "sub_type": "传统技艺",
      "era": "",
      "protection_level": "区级非物质文化遗产代表性项目",
      "address": "南海区桂城街道",
      "town": "桂城街道",
      "id": "NH_0084",
      "lng": 113.230891,
      "lat": 23.009957,
      "coord_source": "polygon_sample"
    },
    {
      "name": "九江刀制作技艺",
      "anchor_type": "非遗项目",
      "sub_type": "传统技艺",
      "era": "",
      "protection_level": "区级非物质文化遗产代表性项目",
      "address": "南海区九江镇",
      "town": "九江镇",
      "id": "NH_0085",
      "lng": 112.999817,
      "lat": 22.859195,
      "coord_source": "name_hint"
    },
    {
      "name": "九江鹤装狮头制作技艺",
      "anchor_type": "非遗项目",
      "sub_type": "传统技艺",
      "era": "",
      "protection_level": "区级非物质文化遗产代表性项目",
      "address": "南海区九江镇",
      "town": "九江镇",
      "id": "NH_0086",
      "lng": 112.997171,
      "lat": 22.855077,
      "coord_source": "name_hint"
    },
    {
      "name": "酱油酿造技艺（九江酱油酿造技艺）",
      "anchor_type": "非遗项目",
      "sub_type": "传统技艺",
      "era": "",
      "protection_level": "区级非物质文化遗产代表性项目",
      "address": "南海区九江镇",
      "town": "九江镇",
      "id": "NH_0087",
      "lng": 112.997035,
      "lat": 22.857266,
      "coord_source": "name_hint"
    },
    {
      "name": "下东村周将军诞",
      "anchor_type": "非遗项目",
      "sub_type": "民俗",
      "era": "",
      "protection_level": "区级非物质文化遗产代表性项目",
      "address": "南海区九江镇",
      "town": "九江镇",
      "id": "NH_0088",
      "lng": 112.950292,
      "lat": 22.877711,
      "coord_source": "polygon_sample"
    },
    {
      "name": "酿鲮鱼制作技艺（南海）",
      "anchor_type": "非遗项目",
      "sub_type": "传统技艺",
      "era": "",
      "protection_level": "区级非物质文化遗产代表性项目",
      "address": "南海区桂城街道",
      "town": "桂城街道",
      "id": "NH_0089",
      "lng": 113.235146,
      "lat": 22.989545,
      "coord_source": "polygon_sample"
    },
    {
      "name": "蛋散制作技艺（丹灶）",
      "anchor_type": "非遗项目",
      "sub_type": "传统技艺",
      "era": "",
      "protection_level": "区级非物质文化遗产代表性项目",
      "address": "南海区丹灶镇",
      "town": "丹灶镇",
      "id": "NH_0090",
      "lng": 112.894618,
      "lat": 23.035883,
      "coord_source": "name_hint"
    },
    {
      "name": "传统中医药文化（保愈堂传统中医文化）",
      "anchor_type": "非遗项目",
      "sub_type": "传统医药",
      "era": "",
      "protection_level": "区级非物质文化遗产代表性项目",
      "address": "南海区桂城街道",
      "town": "桂城街道",
      "id": "NH_0091",
      "lng": 113.219758,
      "lat": 23.034827,
      "coord_source": "polygon_sample"
    }
  ],
  "notes": [
    "2026-04-21 rebuild v2: 修复 98 条镇街归属；合并 91 项非遗；",
    "非遗落位三档：name_hint（名字含村/街地标）→ geocoded（真实且非共享地址）→ polygon_sample（镇域多边形内均匀采样）。",
    "原共享登记地址坐标全部弃用，改为镇域随机采样。"
  ]
}