record_id,source_file,source_type,resource_class,sub_class,level,name,era,address,town,target_geometry,lng,lat,spatial_method,spatial_confidence,matched_existing_anchor,matched_poi,dedup_status,dedup_match,centroid_town
IH_0001,不可移动文物Excel.xls,不可移动文物,石窟寺及石刻,碑刻,尚未核定公布为文物保护单位的不可移动文物,果岗江孔殷桅杆夹,清代,广东省佛山市南海区狮山镇罗村联和社区居委会果岗村联和大道旁江氏宗祠前,狮山镇,point,113.030542,23.122685,address_token_centroid,0.72,,狮山 (876 points),new_candidate,,狮山镇
IH_0002,不可移动文物Excel.xls,不可移动文物,古建筑,坛庙祠堂,市级和县级文物保护单位,字祖庙,清代,广东省佛山市南海区西樵镇樵园社区西樵山白云洞风景区,西樵镇,point,112.964474,22.933739,existing_anchor_name,0.98,字祖庙,,duplicate_existing_anchor,字祖庙,西樵镇
IH_0003,不可移动文物Excel.xls,不可移动文物,古建筑,寺观塔阁（及其他宗教建筑）,省级文物保护单位,象林塔,清代,广东省佛山市南海区西樵镇樵园社区西樵山白云洞风景区,西樵镇,point,112.963822,22.933414,existing_anchor_name,0.98,象林塔,,duplicate_existing_anchor,象林塔,西樵镇
IH_0004,不可移动文物Excel.xls,不可移动文物,近现代重要史迹及代表性建筑,名人墓,市级和县级文物保护单位,冯夏威墓,近现代,广东省佛山市南海区西樵镇樵园社区蟠龙洞洞口,西樵镇,point,112.975303,22.940864,existing_anchor_name,0.98,冯夏威墓,,duplicate_existing_anchor,冯夏威墓,西樵镇
IH_0005,不可移动文物Excel.xls,不可移动文物,古建筑,桥涵码头,尚未核定公布为文物保护单位的不可移动文物,环溪安宁桥,清代,广东省佛山市南海区桂城街道夏南一社区居委会环溪村司马里对面,桂城街道,point,113.15563,23.044054,address_token_centroid,0.72,,桂城街 (925 points),new_candidate,,桂城街道
IH_0006,不可移动文物Excel.xls,不可移动文物,古墓葬,普通墓葬,市级和县级文物保护单位,娥媚坑竹西岗墓群,战国秦汉,广东省佛山市南海区桂城街道林岳社区居委会娥媚坑竹西岗,桂城街道,point,113.251149,22.998477,address_token_centroid,0.62,,林岳社区 (1 points),new_candidate,,桂城街道
IH_0007,不可移动文物Excel.xls,不可移动文物,古文化遗址,寺庙遗址,省级文物保护单位,西华寺遗址,"隋唐五代十国,宋辽西夏金元,明代,清代",广东省佛山市南海区里水镇草场社区居委会石门山南麓西华村西华街13号,里水镇,point,113.138868,23.223757,town_representative_point,0.38,,,new_candidate,,里水镇
IH_0008,不可移动文物Excel.xls,不可移动文物,古文化遗址,聚落址,尚未核定公布为文物保护单位的不可移动文物,太监岗遗址,新石器时代,广东省佛山市南海区西樵镇山根社区居委会太监岗,西樵镇,point,112.985257,22.935854,address_token_centroid,0.72,,西樵镇山 (30 points),new_candidate,,西樵镇
IH_0009,不可移动文物Excel.xls,不可移动文物,古建筑,亭台楼阙（及其他景观建筑、戏曲演出建筑、天文观测建筑）,尚未核定公布为文物保护单位的不可移动文物,石龙大夫第门楼,清代,广东省佛山市南海区西樵镇七星村委会石龙里大夫第巷1号,西樵镇,point,112.935322,22.941121,town_representative_point,0.38,,,new_candidate,,西樵镇
IH_0010,不可移动文物Excel.xls,不可移动文物,近现代重要史迹及代表性建筑,其他近现代代表性建筑,尚未核定公布为文物保护单位的不可移动文物,西岸接源亭,近现代,广东省佛山市南海区西樵镇西岸社区居委会银坑村接源桥侧,西樵镇,point,112.935322,22.941121,town_representative_point,0.38,,,new_candidate,,西樵镇
IH_0011,不可移动文物Excel.xls,不可移动文物,古墓葬,普通墓葬,尚未核定公布为文物保护单位的不可移动文物,林得润夫妇墓,明代,广东省佛山市南海区西樵镇大同社区居委会柏山村口牌坊后小山岗,西樵镇,point,112.935322,22.941121,town_representative_point,0.38,,,new_candidate,,西樵镇
IH_0012,不可移动文物Excel.xls,不可移动文物,古建筑,驿站会馆（及其他交通道路设施、旅行服务设施）,尚未核定公布为文物保护单位的不可移动文物,西樵山火石迳古道,清代,广东省佛山市南海区西樵镇东碧社区黄旗峰迳边村至山根莘村,西樵镇,point,112.972637,22.930869,address_token_centroid,0.72,,西樵山 (157 points),new_candidate,,西樵镇
IH_0013,不可移动文物Excel.xls,不可移动文物,古墓葬,普通墓葬,尚未核定公布为文物保护单位的不可移动文物,西樵山岑氏家族墓,清代,广东省佛山市南海区西樵镇东碧社区西樵山云路村九稔岗,西樵镇,point,112.972637,22.930869,address_token_centroid,0.72,,西樵山 (157 points),new_candidate,,西樵镇
IH_0014,不可移动文物Excel.xls,不可移动文物,古墓葬,名人或贵族墓,市级和县级文物保护单位,李子长墓,明代,广东省佛山市南海区西樵镇东碧社区西樵山云路村云路峰下,西樵镇,point,112.972752,22.922157,existing_anchor_name,0.98,李子长墓,,duplicate_existing_anchor,李子长墓,西樵镇
IH_0015,不可移动文物Excel.xls,不可移动文物,古建筑,池塘井泉,市级和县级文物保护单位,西樵山紫姑井,隋唐五代十国,广东省佛山市南海区西樵镇东碧社区西樵山寺边村九龙岩景区,西樵镇,point,112.976037,22.91698,existing_anchor_name,0.98,西樵山紫姑井,,duplicate_existing_anchor,西樵山紫姑井,西樵镇
IH_0016,不可移动文物Excel.xls,不可移动文物,石窟寺及石刻,摩崖石刻,省级文物保护单位,宝峰胜处摩崖石刻,明代,广东省佛山市南海区西樵镇东碧社区西樵山寺边村西南侧,西樵镇,point,112.980933,22.929502,existing_anchor_name,0.98,宝峰胜处摩崖石刻,,duplicate_existing_anchor,宝峰胜处摩崖石刻,西樵镇
IH_0017,不可移动文物Excel.xls,不可移动文物,石窟寺及石刻,摩崖石刻,市级和县级文物保护单位,翠岩摩崖石刻,清代,广东省佛山市南海区西樵镇东碧社区西樵山碧云村翠岩景区,西樵镇,point,112.980933,22.929502,existing_anchor_name,0.98,翠岩摩崖石刻,,duplicate_existing_anchor,翠岩摩崖石刻,西樵镇
IH_0018,不可移动文物Excel.xls,不可移动文物,古墓葬,普通墓葬,尚未核定公布为文物保护单位的不可移动文物,西樵山杨氏家族墓,宋辽西夏金元,广东省佛山市南海区西樵镇东碧社区西樵山云路村楠木坑,西樵镇,point,112.972637,22.930869,address_token_centroid,0.72,,西樵山 (157 points),new_candidate,,西樵镇
IH_0019,不可移动文物Excel.xls,不可移动文物,石窟寺及石刻,摩崖石刻,市级和县级文物保护单位,大科峰摩崖石刻,清代,广东省佛山市南海区西樵镇东碧社区西樵山大科村大科峰西南麓,西樵镇,point,112.977414,22.92249,existing_anchor_name,0.98,大科峰摩崖石刻,,duplicate_existing_anchor,大科峰摩崖石刻,西樵镇
IH_0020,不可移动文物Excel.xls,不可移动文物,石窟寺及石刻,摩崖石刻,市级和县级文物保护单位,玉廪峰摩崖石刻,明代,广东省佛山市南海区西樵镇儒溪村委会江边村民小组西樵山玉廪峰巅,西樵镇,point,112.960983,22.920861,existing_anchor_name,0.98,玉廪峰摩崖石刻,,duplicate_existing_anchor,玉廪峰摩崖石刻,西樵镇
IH_0021,不可移动文物Excel.xls,不可移动文物,古墓葬,普通墓葬,尚未核定公布为文物保护单位的不可移动文物,李咸江墓,宋辽西夏金元,广东省佛山市南海区西樵镇东碧社区西樵山云路村铁泉峰飞鹅岭,西樵镇,point,112.935322,22.941121,town_representative_point,0.38,,,new_candidate,,西樵镇
IH_0022,不可移动文物Excel.xls,不可移动文物,石窟寺及石刻,摩崖石刻,市级和县级文物保护单位,九龙岩摩崖石刻,明代,广东省佛山市南海区西樵镇东碧社区西樵山寺边村九龙岩景区,西樵镇,point,112.977822,22.916936,existing_anchor_name,0.98,九龙岩摩崖石刻,,duplicate_existing_anchor,九龙岩摩崖石刻,西樵镇
IH_0023,不可移动文物Excel.xls,不可移动文物,古建筑,坛庙祠堂,尚未核定公布为文物保护单位的不可移动文物,厚村刘氏大宗祠,清代,广东省佛山市南海区狮山镇官窑社区居委会厚东村,狮山镇,point,113.074893,23.225188,poi_name_fuzzy,0.84,,刘氏大宗祠,new_candidate,,狮山镇
IH_0024,不可移动文物Excel.xls,不可移动文物,古建筑,驿站会馆（及其他交通道路设施、旅行服务设施）,尚未核定公布为文物保护单位的不可移动文物,大何长庚古道,清代,广东省佛山市南海区狮山镇狮西村委会大何村西侧,狮山镇,point,113.030542,23.122685,address_token_centroid,0.72,,狮山 (876 points),new_candidate,,狮山镇
IH_0025,不可移动文物Excel.xls,不可移动文物,古文化遗址,窑址,尚未核定公布为文物保护单位的不可移动文物,瑶头窑址,"隋唐五代十国,宋辽西夏金元",广东省佛山市南海区里水镇瑶头村委会窑张村石角,里水镇,point,113.138868,23.223757,town_representative_point,0.38,,,new_candidate,,里水镇
IH_0026,不可移动文物Excel.xls,不可移动文物,古建筑,坛庙祠堂,尚未核定公布为文物保护单位的不可移动文物,和平吕氏家庙,清代,广东省佛山市南海区里水镇大冲社区居委会和平村大冲幼儿园右侧,里水镇,point,113.125218,23.156106,poi_name_fuzzy,0.84,,吕氏家庙,new_candidate,,里水镇
IH_0027,不可移动文物Excel.xls,不可移动文物,古墓葬,名人或贵族墓,尚未核定公布为文物保护单位的不可移动文物,月池黄氏家族墓,宋辽西夏金元,广东省佛山市南海区里水镇河村社区居委会月池村月姑池,里水镇,point,113.138868,23.223757,town_representative_point,0.38,,,new_candidate,,里水镇
IH_0028,不可移动文物Excel.xls,不可移动文物,古建筑,桥涵码头,尚未核定公布为文物保护单位的不可移动文物,潭边石板桥,清代,广东省佛山市南海区里水镇麻奢村委会潭边村四巷六号右前方（潭边文化室右边）,里水镇,point,113.138868,23.223757,town_representative_point,0.38,,,new_candidate,,里水镇
IH_0029,不可移动文物Excel.xls,不可移动文物,古建筑,桥涵码头,尚未核定公布为文物保护单位的不可移动文物,北约石梁桥,"明代,清代",广东省佛山市南海区桂城街道北约社区居委会住宅六区65号侧,桂城街道,point,113.15563,23.044054,address_token_centroid,0.72,,桂城街 (925 points),new_candidate,,桂城街道
IH_0030,不可移动文物Excel.xls,不可移动文物,古建筑,坛庙祠堂,尚未核定公布为文物保护单位的不可移动文物,友谅徐公祠,清代,广东省佛山市南海区狮山镇莲塘村委会莲北村居安里1号侧,狮山镇,point,113.030542,23.122685,address_token_centroid,0.72,,狮山 (876 points),new_candidate,,狮山镇
IH_0031,不可移动文物Excel.xls,不可移动文物,古墓葬,普通墓葬,尚未核定公布为文物保护单位的不可移动文物,陈茂兴、吴太安人墓,宋辽西夏金元,广东省佛山市南海区丹灶镇仙岗社区居委会赤坎村南部村口处,丹灶镇,point,112.92091,23.06365,town_representative_point,0.38,,,new_candidate,,丹灶镇
IH_0032,不可移动文物Excel.xls,不可移动文物,近现代重要史迹及代表性建筑,名人故、旧居,尚未核定公布为文物保护单位的不可移动文物,梁植伟旧居,近现代,广东省佛山市南海区大沥镇岐城社区均安大街六巷3至9号,大沥镇,point,113.194093,23.117805,poi_name_exact,0.94,,梁植伟旧居,matched_poi_only,梁植伟旧居,大沥镇
IH_0033,不可移动文物Excel.xls,不可移动文物,古建筑,池塘井泉,尚未核定公布为文物保护单位的不可移动文物,禄舟水井,明代,广东省佛山市南海区西樵镇岭西村委会禄舟村20号万寿堂前,西樵镇,point,112.935322,22.941121,town_representative_point,0.38,,,new_candidate,,西樵镇
IH_0034,不可移动文物Excel.xls,不可移动文物,古建筑,坛庙祠堂,尚未核定公布为文物保护单位的不可移动文物,大岸霍氏宗祠,清代,广东省佛山市南海区西樵镇大岸村委会八村村绵绵里17号侧,西樵镇,point,112.930983,22.991846,poi_name_fuzzy,0.84,,霍氏宗祠,new_candidate,,丹灶镇
IH_0035,不可移动文物Excel.xls,不可移动文物,古建筑,池塘井泉,尚未核定公布为文物保护单位的不可移动文物,罗城三眼井,清代,广东省佛山市南海区大沥镇雅瑶社区居委会罗城村大街南十巷5号前,大沥镇,point,113.141389,23.1262,poi_name_exact,0.94,,罗城三眼井,matched_poi_only,罗城三眼井,大沥镇
IH_0036,不可移动文物Excel.xls,不可移动文物,古建筑,桥涵码头,尚未核定公布为文物保护单位的不可移动文物,白沙杏花桥,清代,广东省佛山市南海区大沥镇白沙社区居委会白沙村杏花桥大街5号,大沥镇,point,113.145463,23.118352,town_representative_point,0.38,,,new_candidate,,大沥镇
IH_0037,不可移动文物Excel.xls,不可移动文物,古建筑,寺观塔阁（及其他宗教建筑）,尚未核定公布为文物保护单位的不可移动文物,碧华文昌塔,清代,广东省佛山市南海区大沥镇东秀社区居委会碧华村张王爷坊47号前,大沥镇,point,113.145463,23.118352,town_representative_point,0.38,,,new_candidate,,大沥镇
IH_0038,不可移动文物Excel.xls,不可移动文物,古建筑,桥涵码头,尚未核定公布为文物保护单位的不可移动文物,联安汇龙桥,清代,广东省佛山市南海区大沥镇联安社区居委会汇龙村东隅大街3号侧,大沥镇,point,113.145463,23.118352,town_representative_point,0.38,,,new_candidate,,大沥镇
IH_0039,不可移动文物Excel.xls,不可移动文物,近现代重要史迹及代表性建筑,文化教育建筑及附属物,尚未核定公布为文物保护单位的不可移动文物,沙溪小学校牌坊,近现代,广东省佛山市南海区大沥镇沙溪社区居委会正西村大街沙溪公园,大沥镇,point,113.196199,23.127511,poi_name_fuzzy,0.84,,沙溪小学,new_candidate,,大沥镇
IH_0040,不可移动文物Excel.xls,不可移动文物,近现代重要史迹及代表性建筑,典型风格建筑或者构筑物,尚未核定公布为文物保护单位的不可移动文物,泌冲楼巷门楼,近现代,广东省佛山市南海区大沥镇泌冲社区居委会泌冲村西南约大街9号侧,大沥镇,point,113.145463,23.118352,town_representative_point,0.38,,,new_candidate,,大沥镇
IH_0041,不可移动文物Excel.xls,不可移动文物,古建筑,池塘井泉,市级和县级文物保护单位,松塘甘井,"宋辽西夏金元,明代,清代",广东省佛山市南海区西樵镇上金瓯社区居委会松塘村桂阳坊42号侧,西樵镇,point,112.910779,22.986061,existing_anchor_name,0.98,松塘甘井,,duplicate_existing_anchor,松塘甘井,西樵镇
IH_0042,不可移动文物Excel.xls,不可移动文物,古建筑,池塘井泉,尚未核定公布为文物保护单位的不可移动文物,隔岗方井,明代,广东省佛山市南海区大沥镇沥西社区居委会隔岗村南九巷2号侧,大沥镇,point,113.145463,23.118352,town_representative_point,0.38,,,new_candidate,,大沥镇
IH_0043,不可移动文物Excel.xls,不可移动文物,古建筑,桥涵码头,尚未核定公布为文物保护单位的不可移动文物,沙咀石桥,清代,广东省佛山市南海区九江镇沙咀社区居委会三村村大门楼38号侧,九江镇,point,112.959097,22.865251,town_representative_point,0.38,,,new_candidate,,九江镇
IH_0044,不可移动文物Excel.xls,不可移动文物,石窟寺及石刻,石雕,尚未核定公布为文物保护单位的不可移动文物,果岗石兽,明代,广东省佛山市南海区狮山镇罗村联和社区居委会果岗村果岗乡牌坊前方南侧,狮山镇,point,113.030542,23.122685,address_token_centroid,0.72,,狮山 (876 points),new_candidate,,狮山镇
IH_0045,不可移动文物Excel.xls,不可移动文物,古建筑,桥涵码头,市级和县级文物保护单位,沙水翰林步头,清代,广东省佛山市南海区丹灶镇劳边社区居委会沙水村西街坊南乔公祠前,丹灶镇,point,112.928208,23.057435,existing_anchor_name,0.98,沙水翰林步头,,duplicate_existing_anchor,沙水翰林步头,丹灶镇
IH_0046,不可移动文物Excel.xls,不可移动文物,古建筑,牌坊影壁,尚未核定公布为文物保护单位的不可移动文物,上林樵岭南来第一门牌坊,清代,广东省佛山市南海区丹灶镇东升社区居委会上林村村口,丹灶镇,point,112.92091,23.06365,town_representative_point,0.38,,,new_candidate,,丹灶镇
IH_0047,不可移动文物Excel.xls,不可移动文物,古墓葬,普通墓葬,尚未核定公布为文物保护单位的不可移动文物,仙岗陈氏一世祖墓,宋辽西夏金元,广东省佛山市南海区丹灶镇仙岗社区居委会大仙岗东南麓,丹灶镇,point,112.92091,23.06365,town_representative_point,0.38,,,new_candidate,,丹灶镇
IH_0048,不可移动文物Excel.xls,不可移动文物,石窟寺及石刻,石雕,尚未核定公布为文物保护单位的不可移动文物,仙岗石狮,"明代,清代",广东省佛山市南海区丹灶镇仙岗社区居委会仙岗村石狮巷巷口,丹灶镇,point,112.92091,23.06365,town_representative_point,0.38,,,new_candidate,,丹灶镇
IH_0049,不可移动文物Excel.xls,不可移动文物,古墓葬,名人或贵族墓,省级文物保护单位,方献夫墓,明代,广东省佛山市南海区丹灶镇良登村委会孔边村孔边岗,丹灶镇,point,112.915719,23.027375,existing_anchor_name,0.98,方献夫墓,,duplicate_existing_anchor,方献夫墓,丹灶镇
IH_0050,不可移动文物Excel.xls,不可移动文物,古文化遗址,聚落址,市级和县级文物保护单位,通心岗遗址,新石器时代,广东省佛山市南海区丹灶镇良登村委会良登村通心岗西北麓,丹灶镇,point,112.915658,23.018911,existing_anchor_name,0.98,通心岗遗址,,duplicate_existing_anchor,通心岗遗址,丹灶镇
IH_0051,不可移动文物Excel.xls,不可移动文物,古建筑,池塘井泉,市级和县级文物保护单位,阴骘井,宋辽西夏金元,广东省佛山市南海区丹灶镇仙岗社区居委会苏坑村村尾,丹灶镇,point,112.886543,23.040686,existing_anchor_name,0.98,阴骘井,,duplicate_existing_anchor,阴骘井,丹灶镇
IH_0052,不可移动文物Excel.xls,不可移动文物,古建筑,池塘井泉,省级文物保护单位,仙岗仙迹丹泉,"三国两晋南北朝,明代,清代",广东省佛山市南海区丹灶镇仙岗社区居委会仙岗村流水井二巷前,丹灶镇,point,112.886577,23.039443,existing_anchor_fuzzy,0.88,仙迹丹泉,,new_candidate,,丹灶镇
IH_0053,不可移动文物Excel.xls,不可移动文物,古建筑,堤坝渠堰（及其他水利设施）,尚未核定公布为文物保护单位的不可移动文物,沙水白银窦,清代,广东省佛山市南海区丹灶镇劳边社区居委会沙水村沙水路沙岸鱼塘侧,丹灶镇,point,112.930547,23.049446,address_token_centroid,0.62,,丹灶镇劳边社区沙水村 (1 points),new_candidate,,丹灶镇
IH_0054,不可移动文物Excel.xls,不可移动文物,古建筑,池塘井泉,尚未核定公布为文物保护单位的不可移动文物,料美水井,清代,广东省佛山市南海区里水镇小布村委会料美村兴仁里25号前,里水镇,point,113.138868,23.223757,town_representative_point,0.38,,,new_candidate,,里水镇
IH_0055,不可移动文物Excel.xls,不可移动文物,近现代重要史迹及代表性建筑,其他近现代代表性建筑,尚未核定公布为文物保护单位的不可移动文物,徐边无辜受害死难贫下中农纪念碑,近现代,广东省佛山市南海区丹灶镇劳边社区居委会徐边通衢入口200米处,丹灶镇,point,112.932456,23.061795,poi_name_exact,0.94,,徐边无辜受害死难贫下中农纪念碑,matched_poi_only,徐边无辜受害死难贫下中农纪念碑,丹灶镇
IH_0056,不可移动文物Excel.xls,不可移动文物,古建筑,桥涵码头,市级和县级文物保护单位,三元桥,清代,广东省佛山市南海区九江镇儒林社区船栏街侧,九江镇,point,113.017604,22.829592,existing_anchor_name,0.98,三元桥,,duplicate_existing_anchor,三元桥,九江镇
IH_0057,不可移动文物Excel.xls,不可移动文物,古墓葬,普通墓葬,市级和县级文物保护单位,水南村冯氏家族墓,宋辽西夏金元,广东省佛山市南海区九江镇水南社区居委会迎安大道东边约50米处,九江镇,point,113.030182,22.910187,existing_anchor_fuzzy,0.88,冯氏家族墓,,new_candidate,,九江镇
IH_0058,不可移动文物Excel.xls,不可移动文物,近现代重要史迹及代表性建筑,名人墓,市级和县级文物保护单位,李卓峰墓,近现代,广东省佛山市南海区九江镇南方社区居委会忠良岗,九江镇,point,113.017187,22.825344,existing_anchor_name,0.98,李卓峰墓,,duplicate_existing_anchor,李卓峰墓,九江镇
IH_0059,不可移动文物Excel.xls,不可移动文物,古建筑,堤坝渠堰（及其他水利设施）,尚未核定公布为文物保护单位的不可移动文物,桑园围东堤,"宋辽西夏金元,明代,清代",广东省佛山市南海区九江镇沙头社区东北边,九江镇,point,112.959097,22.865251,town_representative_point,0.38,,,new_candidate,,九江镇
IH_0060,不可移动文物Excel.xls,不可移动文物,古建筑,堤坝渠堰（及其他水利设施）,尚未核定公布为文物保护单位的不可移动文物,世老石堤围,明代,广东省佛山市南海区九江镇朗星社区居委会世老村村面,九江镇,point,112.959097,22.865251,town_representative_point,0.38,,,new_candidate,,九江镇
IH_0061,不可移动文物Excel.xls,不可移动文物,古建筑,桥涵码头,尚未核定公布为文物保护单位的不可移动文物,溪头一眼桥,明代,广东省佛山市南海区大沥镇河西社区居委会溪头村,大沥镇,point,113.145463,23.118352,town_representative_point,0.38,,,new_candidate,,大沥镇
IH_0062,不可移动文物Excel.xls,不可移动文物,古墓葬,名人或贵族墓,市级和县级文物保护单位,邹特夫墓,清代,广东省佛山市南海区大沥镇泌冲社区居委会后海村长青墓园内,大沥镇,point,113.145463,23.118352,town_representative_point,0.38,,,new_candidate,,大沥镇
IH_0063,不可移动文物Excel.xls,不可移动文物,古墓葬,普通墓葬,尚未核定公布为文物保护单位的不可移动文物,西桥卢氏祖墓,明代,广东省佛山市南海区九江镇西桥社区居委会西桥村九樵路侧,九江镇,point,112.959097,22.865251,town_representative_point,0.38,,,new_candidate,,九江镇
IH_0064,不可移动文物Excel.xls,不可移动文物,古建筑,坛庙祠堂,尚未核定公布为文物保护单位的不可移动文物,北约香亭,清代,广东省佛山市南海区桂城街道北约社区居委会老人协会南侧,桂城街道,point,113.15563,23.044054,address_token_centroid,0.72,,桂城街 (925 points),new_candidate,,桂城街道
IH_0065,不可移动文物Excel.xls,不可移动文物,近现代重要史迹及代表性建筑,其他近现代代表性建筑,尚未核定公布为文物保护单位的不可移动文物,张边南队旧址,近现代,广东省佛山市南海区狮山镇高边社区居委会张南村张南一巷1号,狮山镇,point,113.030542,23.122685,address_token_centroid,0.72,,狮山 (876 points),new_candidate,,狮山镇
IH_0066,不可移动文物Excel.xls,不可移动文物,古建筑,桥涵码头,尚未核定公布为文物保护单位的不可移动文物,西龙水步,清代,广东省佛山市南海区桂城街道平胜社区居委会西龙村西龙街26号西北侧西龙涌边,桂城街道,point,113.17698,23.002205,address_token_centroid,0.62,,桂城街道平胜社区 (1 points),new_candidate,,桂城街道
IH_0067,不可移动文物Excel.xls,不可移动文物,古建筑,坛庙祠堂,尚未核定公布为文物保护单位的不可移动文物,东约古庙,清代,广东省佛山市南海区桂城街道东二社区居委会东约村北街大道23号,桂城街道,point,113.163593,23.022909,poi_name_exact,0.94,,东约古庙,matched_poi_only,东约古庙,桂城街道
IH_0068,不可移动文物Excel.xls,不可移动文物,古建筑,坛庙祠堂,尚未核定公布为文物保护单位的不可移动文物,东约土地庙,清代,广东省佛山市南海区桂城街道东二社区居委会东约村东北直街1O号侧,桂城街道,point,113.15563,23.044054,address_token_centroid,0.72,,桂城街 (925 points),new_candidate,,桂城街道
IH_0069,不可移动文物Excel.xls,不可移动文物,古建筑,坛庙祠堂,尚未核定公布为文物保护单位的不可移动文物,瑞庭唐公祠,清代,广东省佛山市南海区桂城街道东二社区居委会中心村东二公园内,桂城街道,point,113.152094,23.028992,poi_name_exact,0.94,,瑞庭唐公祠,matched_poi_only,瑞庭唐公祠,桂城街道
IH_0070,不可移动文物Excel.xls,不可移动文物,古建筑,坛庙祠堂,尚未核定公布为文物保护单位的不可移动文物,临溪何公祠,"明代,清代",广东省佛山市南海区桂城街道夏北社区居委会洲表村夏北大道57号,桂城街道,point,113.175531,23.06409,poi_name_exact,0.94,,临溪何公祠,matched_poi_only,临溪何公祠,桂城街道
IH_0071,不可移动文物Excel.xls,不可移动文物,古文化遗址,矿冶遗址,省级文物保护单位,富贤遗址,新石器时代,广东省佛山市南海区西樵镇显岗社区居委会富贤村后平面岗、石沙围,西樵镇,point,112.99099,22.914314,existing_anchor_name,0.98,富贤遗址,,duplicate_existing_anchor,富贤遗址,西樵镇
IH_0072,不可移动文物Excel.xls,不可移动文物,古文化遗址,矿冶遗址,省级文物保护单位,火石迳遗址,新石器时代,广东省佛山市南海区西樵镇山根社区居委会莘村村火石岗,西樵镇,point,112.997791,22.934179,existing_anchor_name,0.98,火石迳遗址,,duplicate_existing_anchor,火石迳遗址,西樵镇
IH_0073,不可移动文物Excel.xls,不可移动文物,古文化遗址,聚落址,省级文物保护单位,佛子庙镇头遗址,新石器时代,广东省佛山市南海区西樵镇儒溪村委会江边村环山公路佛子庙与镇头,西樵镇,point,112.961564,22.912037,existing_anchor_name,0.98,佛子庙镇头遗址,,duplicate_existing_anchor,佛子庙镇头遗址,西樵镇
IH_0074,不可移动文物Excel.xls,不可移动文物,古建筑,桥涵码头,尚未核定公布为文物保护单位的不可移动文物,牛过坑石桥,清代,广东省佛山市南海区西樵镇显岗社区居委会富贤村后牛过坑,西樵镇,point,112.935322,22.941121,town_representative_point,0.38,,,new_candidate,,西樵镇
IH_0075,不可移动文物Excel.xls,不可移动文物,近现代重要史迹及代表性建筑,交通道路设施,尚未核定公布为文物保护单位的不可移动文物,西岸接源桥,近现代,广东省佛山市南海区西樵镇西岸社区居委会银坑村庆云洞西侧,西樵镇,point,112.935322,22.941121,town_representative_point,0.38,,,new_candidate,,西樵镇
IH_0076,不可移动文物Excel.xls,不可移动文物,古墓葬,普通墓葬,尚未核定公布为文物保护单位的不可移动文物,李盟威墓,宋辽西夏金元,广东省佛山市南海区西樵镇山根社区居委会樵阳村民小组罗伞岗,西樵镇,point,112.985257,22.935854,address_token_centroid,0.72,,西樵镇山 (30 points),new_candidate,,西樵镇
IH_0077,不可移动文物Excel.xls,不可移动文物,古墓葬,普通墓葬,尚未核定公布为文物保护单位的不可移动文物,余岳甫、曾氏安人墓,清代,广东省佛山市南海区西樵镇西樵山白山村黄龙岗,西樵镇,point,112.935322,22.941121,town_representative_point,0.38,,,new_candidate,,西樵镇
IH_0078,不可移动文物Excel.xls,不可移动文物,古墓葬,普通墓葬,尚未核定公布为文物保护单位的不可移动文物,西樵山戴氏家族墓,"明代,清代",广东省佛山市南海区西樵镇东碧社区西樵山云路村凤冠山南麓,西樵镇,point,112.972637,22.930869,address_token_centroid,0.72,,西樵山 (157 points),new_candidate,,西樵镇
IH_0079,不可移动文物Excel.xls,不可移动文物,古建筑,驿站会馆（及其他交通道路设施、旅行服务设施）,市级和县级文物保护单位,西樵山百步云梯,明代,广东省佛山市南海区西樵镇东碧社区西樵山石牌村金钗峰北麓,西樵镇,point,112.981144,22.937175,existing_anchor_name,0.98,西樵山百步云梯,,duplicate_existing_anchor,西樵山百步云梯,西樵镇
IH_0080,不可移动文物Excel.xls,不可移动文物,近现代重要史迹及代表性建筑,其他近现代代表性建筑,尚未核定公布为文物保护单位的不可移动文物,西樵山豫章首第门楼,近现代,广东省佛山市南海区西樵镇东碧社区西樵山碧云村30号前,西樵镇,point,112.975807,22.929714,poi_name_exact,0.94,,西樵山豫章首第门楼,matched_poi_only,西樵山豫章首第门楼,西樵镇
IH_0081,不可移动文物Excel.xls,不可移动文物,古建筑,池塘井泉,市级和县级文物保护单位,西樵山蟹眼泉,清代,广东省佛山市南海区西樵镇东碧社区西樵山碧云村翠岩风景区,西樵镇,point,112.980036,22.931352,existing_anchor_name,0.98,西樵山蟹眼泉,,duplicate_existing_anchor,西樵山蟹眼泉,西樵镇
IH_0082,不可移动文物Excel.xls,不可移动文物,近现代重要史迹及代表性建筑,其他近现代代表性建筑,尚未核定公布为文物保护单位的不可移动文物,西樵山天后宫,近现代,广东省佛山市南海区西樵镇东碧社区西樵山寺边村四方竹景区入口处,西樵镇,point,112.970018,22.92039,poi_name_exact,0.94,,西樵山天后宫,matched_poi_only,西樵山天后宫,西樵镇
IH_0083,不可移动文物Excel.xls,不可移动文物,古建筑,亭台楼阙（及其他景观建筑、戏曲演出建筑、天文观测建筑）,市级和县级文物保护单位,西樵山仙姑亭,清代,广东省佛山市南海区西樵镇东碧社区西樵山寺边村九龙岩景区,西樵镇,point,112.972637,22.930869,address_token_centroid,0.72,,西樵山 (157 points),duplicate_existing_anchor,西樵山仙姑亭,西樵镇
IH_0084,不可移动文物Excel.xls,不可移动文物,古文化遗址,矿冶遗址,省级文物保护单位,锦岩遗址,新石器时代,广东省佛山市南海区西樵镇东碧社区西樵山云路村锦岩,西樵镇,point,112.972411,22.921564,existing_anchor_name,0.98,锦岩遗址,,duplicate_existing_anchor,锦岩遗址,西樵镇
IH_0085,不可移动文物Excel.xls,不可移动文物,古墓葬,名人或贵族墓,省级文物保护单位,霍韬夫人墓,明代,广东省佛山市南海区西樵镇东碧社区西樵山寺边村,西樵镇,point,112.973859,22.918362,existing_anchor_name,0.98,霍韬夫人墓,,duplicate_existing_anchor,霍韬夫人墓,西樵镇
IH_0086,不可移动文物Excel.xls,不可移动文物,古文化遗址,其他古遗址,省级文物保护单位,西樵山四峰书院遗址,明代,广东省佛山市南海区西樵镇东碧社区西樵山寺边村,西樵镇,point,112.973856,22.91818,existing_anchor_fuzzy,0.88,四峰书院遗址,,new_candidate,,西樵镇
IH_0087,不可移动文物Excel.xls,不可移动文物,近现代重要史迹及代表性建筑,烈士墓及纪念设施,市级和县级文物保护单位,西樵山抗日阵亡将士暨死难同胞纪念碑,近现代,广东省佛山市南海区西樵镇东碧社区碧玉洞内,西樵镇,point,112.981405,22.934668,existing_anchor_name,0.98,西樵山抗日阵亡将士暨死难同胞纪念碑,,duplicate_existing_anchor,西樵山抗日阵亡将士暨死难同胞纪念碑,西樵镇
IH_0088,不可移动文物Excel.xls,不可移动文物,古墓葬,普通墓葬,尚未核定公布为文物保护单位的不可移动文物,西岸梁氏家族墓,"宋辽西夏金元,明代",广东省佛山市南海区西樵镇西岸社区居委会宫溪村老人峰西北坡约40米高处,西樵镇,point,112.935322,22.941121,town_representative_point,0.38,,,new_candidate,,西樵镇
IH_0089,不可移动文物Excel.xls,不可移动文物,近现代重要史迹及代表性建筑,重要革命历史事件及革命人物活动纪念地,尚未核定公布为文物保护单位的不可移动文物,西樵山抗战胜利纪念亭,近现代,广东省佛山市南海区西樵镇东碧社区黄旗峰火石迳古道旁,西樵镇,point,112.993817,22.935557,poi_name_fuzzy,0.84,,胜利纪念亭,new_candidate,,西樵镇
IH_0090,不可移动文物Excel.xls,不可移动文物,古建筑,坛庙祠堂,尚未核定公布为文物保护单位的不可移动文物,邝村二帝宫,清代,广东省佛山市南海区狮山镇凤岗村委会邝村村东南边,狮山镇,point,113.030542,23.122685,address_token_centroid,0.72,,狮山 (876 points),new_candidate,,狮山镇
IH_0091,不可移动文物Excel.xls,不可移动文物,古建筑,坛庙祠堂,尚未核定公布为文物保护单位的不可移动文物,竹溪关公祠,清代,广东省佛山市南海区狮山镇山南社区居委会鹤园村街前218号,狮山镇,point,113.107111,23.143271,poi_name_fuzzy,0.84,,鹤园竹溪关公祠,new_candidate,,狮山镇
IH_0092,不可移动文物Excel.xls,不可移动文物,古建筑,坛庙祠堂,尚未核定公布为文物保护单位的不可移动文物,豸下李氏大宗祠,清代,广东省佛山市南海区狮山镇黎岗村委会豸下村,狮山镇,point,113.015703,23.041153,poi_name_fuzzy,0.84,,李氏大宗祠,new_candidate,,狮山镇
IH_0093,不可移动文物Excel.xls,不可移动文物,古建筑,坛庙祠堂,尚未核定公布为文物保护单位的不可移动文物,沙岗邓氏宗祠,清代,广东省佛山市南海区里水镇鲁岗村委会沙岗村沙岗大街新一巷1号右侧,里水镇,point,113.089517,23.069873,poi_name_fuzzy,0.84,,邓氏宗祠,new_candidate,,狮山镇
IH_0094,不可移动文物Excel.xls,不可移动文物,古建筑,坛庙祠堂,尚未核定公布为文物保护单位的不可移动文物,岗美黄氏宗祠,清代,广东省佛山市南海区里水镇岗联村委会岗美村联二街六巷1号侧,里水镇,point,113.105668,23.206358,poi_name_fuzzy,0.84,,黄氏宗祠,new_candidate,,里水镇
IH_0095,不可移动文物Excel.xls,不可移动文物,古建筑,坛庙祠堂,尚未核定公布为文物保护单位的不可移动文物,通所李公祠,清代,广东省佛山市南海区里水镇布新村委会西湖村路北7号左边20米处,里水镇,point,113.138868,23.223757,town_representative_point,0.38,,,new_candidate,,里水镇
IH_0096,不可移动文物Excel.xls,不可移动文物,古墓葬,普通墓葬,尚未核定公布为文物保护单位的不可移动文物,易叔止、周淑德墓,宋辽西夏金元,广东省佛山市南海区里水镇大步社区居委会南大步村佛山一环旁龙窟岗,里水镇,point,113.138868,23.223757,town_representative_point,0.38,,,new_candidate,,里水镇
IH_0097,不可移动文物Excel.xls,不可移动文物,古建筑,坛庙祠堂,尚未核定公布为文物保护单位的不可移动文物,湖洲何氏家庙,清代,广东省佛山市南海区里水镇沙涌社区居委会湖洲村北十巷35号侧,里水镇,point,113.138868,23.223757,town_representative_point,0.38,,,new_candidate,,里水镇
IH_0098,不可移动文物Excel.xls,不可移动文物,古建筑,坛庙祠堂,尚未核定公布为文物保护单位的不可移动文物,河村吴氏宗（世）祠,"明代,清代",广东省佛山市南海区里水镇河村社区居委会月池村配龙三巷1号,里水镇,point,113.159783,23.180496,address_token_centroid,0.72,,河村 (21 points),new_candidate,,里水镇
IH_0099,不可移动文物Excel.xls,不可移动文物,古建筑,坛庙祠堂,尚未核定公布为文物保护单位的不可移动文物,河村主帅庙,清代,广东省佛山市南海区里水镇河村社区居委会雄星村大庙街1号,里水镇,point,113.159783,23.180496,address_token_centroid,0.72,,河村 (21 points),new_candidate,,里水镇
IH_0100,不可移动文物Excel.xls,不可移动文物,古建筑,坛庙祠堂,尚未核定公布为文物保护单位的不可移动文物,宏岗李氏宗祠,清代,广东省佛山市南海区里水镇宏岗村委会宏岗村南兴街二巷2号,里水镇,point,112.99534,23.19254,poi_name_fuzzy,0.84,,李氏宗祠,new_candidate,,狮山镇
IH_0101,不可移动文物Excel.xls,不可移动文物,近现代重要史迹及代表性建筑,典型风格建筑或者构筑物,尚未核定公布为文物保护单位的不可移动文物,赤山人民会场旧址,近现代,广东省佛山市南海区里水镇赤山村委会赤山村村前路6号,里水镇,point,113.134145,23.218682,address_token_centroid,0.72,,赤山 (18 points),new_candidate,,里水镇
IH_0102,不可移动文物Excel.xls,不可移动文物,古建筑,坛庙祠堂,尚未核定公布为文物保护单位的不可移动文物,又山邓公祠,清代,广东省佛山市南海区里水镇得胜村委会北头村东路17号,里水镇,point,113.138868,23.223757,town_representative_point,0.38,,,new_candidate,,里水镇
IH_0103,不可移动文物Excel.xls,不可移动文物,古建筑,坛庙祠堂,尚未核定公布为文物保护单位的不可移动文物,白岗张氏宗祠,清代,广东省佛山市南海区里水镇白岗社区居委会白岗村张氏大街1巷1号右侧,里水镇,point,113.130883,23.296558,poi_name_fuzzy,0.84,,张氏宗祠,new_candidate,,里水镇
IH_0104,不可移动文物Excel.xls,不可移动文物,古建筑,坛庙祠堂,尚未核定公布为文物保护单位的不可移动文物,同裕孔氏宗祠,清代,广东省佛山市南海区里水镇文教社区居委会同裕村文华里街一巷1号左侧,里水镇,point,113.124705,23.157129,poi_name_fuzzy,0.84,,孔氏宗祠,new_candidate,,里水镇
IH_0105,不可移动文物Excel.xls,不可移动文物,古建筑,坛庙祠堂,尚未核定公布为文物保护单位的不可移动文物,大文教姚氏宗祠,清代,广东省佛山市南海区里水镇白岗社区居委会大文教村宁寿大街21巷北边,里水镇,point,113.139702,23.245616,poi_name_fuzzy,0.84,,姚氏宗祠,new_candidate,,里水镇
IH_0106,不可移动文物Excel.xls,不可移动文物,近现代重要史迹及代表性建筑,典型风格建筑或者构筑物,尚未核定公布为文物保护单位的不可移动文物,平洲公社平南大队第三生产队旧址,近现代,广东省佛山市南海区桂城街道平南社区居委会五斗村五斗大道西二巷1号,桂城街道,point,113.15563,23.044054,address_token_centroid,0.72,,桂城街 (925 points),new_candidate,,桂城街道
IH_0107,不可移动文物Excel.xls,不可移动文物,古建筑,坛庙祠堂,尚未核定公布为文物保护单位的不可移动文物,横岗欧阳氏宗祠,清代,广东省佛山市南海区里水镇金利社区居委会横岗村横欧大街南三巷1号、四巷1号之间,里水镇,point,113.133042,23.273332,poi_name_fuzzy,0.84,,欧阳氏宗祠,new_candidate,,里水镇
IH_0108,不可移动文物Excel.xls,不可移动文物,古建筑,坛庙祠堂,尚未核定公布为文物保护单位的不可移动文物,料美黄氏宗祠,清代,广东省佛山市南海区里水镇小布村委会料美村南街兴隆里1号侧,里水镇,point,113.105668,23.206358,poi_name_fuzzy,0.84,,黄氏宗祠,new_candidate,,里水镇
IH_0109,不可移动文物Excel.xls,不可移动文物,古建筑,坛庙祠堂,尚未核定公布为文物保护单位的不可移动文物,小布黄氏宗祠,清代,广东省佛山市南海区里水镇小布村委会小南村、小北村间小北街西七巷1号侧,里水镇,point,113.105668,23.206358,poi_name_fuzzy,0.84,,黄氏宗祠,new_candidate,,里水镇
IH_0110,不可移动文物Excel.xls,不可移动文物,古建筑,坛庙祠堂,尚未核定公布为文物保护单位的不可移动文物,西汤汤氏宗祠,清代,广东省佛山市南海区里水镇汤村村委会西汤村大街一巷1号右侧,里水镇,point,113.169389,23.261816,poi_name_fuzzy,0.84,,汤氏宗祠,new_candidate,,里水镇
IH_0111,不可移动文物Excel.xls,不可移动文物,古建筑,坛庙祠堂,尚未核定公布为文物保护单位的不可移动文物,汤南汤氏宗祠,清代,广东省佛山市南海区里水镇汤村村委会汤南村祠堂地堂边1号,里水镇,point,113.169389,23.261816,poi_name_fuzzy,0.84,,汤氏宗祠,new_candidate,,里水镇
IH_0112,不可移动文物Excel.xls,不可移动文物,古建筑,坛庙祠堂,尚未核定公布为文物保护单位的不可移动文物,上社汤氏宗祠,清代,广东省佛山市南海区里水镇汤村村委会上社村上社大街,里水镇,point,113.169389,23.261816,poi_name_fuzzy,0.84,,汤氏宗祠,new_candidate,,里水镇
IH_0113,不可移动文物Excel.xls,不可移动文物,古建筑,坛庙祠堂,尚未核定公布为文物保护单位的不可移动文物,亨美李氏大宗祠,清代,广东省佛山市南海区狮山镇永安社区居委会亨美村九巷侧,狮山镇,point,113.015703,23.041153,poi_name_fuzzy,0.84,,李氏大宗祠,new_candidate,,狮山镇
IH_0114,不可移动文物Excel.xls,不可移动文物,古建筑,坛庙祠堂,尚未核定公布为文物保护单位的不可移动文物,克明周公祠,清代,广东省佛山市南海区狮山镇大榄社区居委会三村,狮山镇,point,113.030542,23.122685,address_token_centroid,0.72,,狮山 (876 points),new_candidate,,狮山镇
IH_0115,不可移动文物Excel.xls,不可移动文物,古建筑,宅第民居,尚未核定公布为文物保护单位的不可移动文物,中社土库,清代,广东省佛山市南海区狮山镇南浦村委会中社村,狮山镇,point,113.030542,23.122685,address_token_centroid,0.72,,狮山 (876 points),new_candidate,,狮山镇
IH_0116,不可移动文物Excel.xls,不可移动文物,古建筑,学堂书院（及其他文化教育建筑）,尚未核定公布为文物保护单位的不可移动文物,邝村思铭书舍,清代,广东省佛山市南海区狮山镇凤岗村委会邝村村,狮山镇,point,113.030542,23.122685,address_token_centroid,0.72,,狮山 (876 points),new_candidate,,狮山镇
IH_0117,不可移动文物Excel.xls,不可移动文物,古建筑,坛庙祠堂,尚未核定公布为文物保护单位的不可移动文物,积聚黄公祠,清代,广东省佛山市南海区狮山镇新和村委会布南村,狮山镇,point,112.959659,23.21894,poi_name_exact,0.94,,积聚黄公祠,matched_poi_only,积聚黄公祠,狮山镇
IH_0118,不可移动文物Excel.xls,不可移动文物,古建筑,坛庙祠堂,尚未核定公布为文物保护单位的不可移动文物,贤边黄氏宗祠,清代,广东省佛山市南海区狮山镇新和村委会贤边村村口,狮山镇,point,113.105668,23.206358,poi_name_fuzzy,0.84,,黄氏宗祠,new_candidate,,里水镇
IH_0119,不可移动文物Excel.xls,不可移动文物,古建筑,坛庙祠堂,尚未核定公布为文物保护单位的不可移动文物,龙头孔氏宗祠,清代,广东省佛山市南海区狮山镇龙头村委会龙头村泰来巷146号侧,狮山镇,point,113.124705,23.157129,poi_name_fuzzy,0.84,,孔氏宗祠,new_candidate,,里水镇
IH_0120,不可移动文物Excel.xls,不可移动文物,古建筑,坛庙祠堂,尚未核定公布为文物保护单位的不可移动文物,石泉陈氏宗祠,清代,广东省佛山市南海区狮山镇石泉村委会石泉浦村,狮山镇,point,113.146747,23.131128,poi_name_fuzzy,0.84,,陈氏宗祠,new_candidate,,大沥镇
IH_0121,不可移动文物Excel.xls,不可移动文物,近现代重要史迹及代表性建筑,其他近现代代表性建筑,尚未核定公布为文物保护单位的不可移动文物,济阳达道门楼,近现代,广东省佛山市南海区狮山镇罗村联和社区居委会果岗村联和大道旁,狮山镇,point,113.030542,23.122685,address_token_centroid,0.72,,狮山 (876 points),new_candidate,,狮山镇
IH_0122,不可移动文物Excel.xls,不可移动文物,古建筑,坛庙祠堂,尚未核定公布为文物保护单位的不可移动文物,丁东洪圣古庙,清代,广东省佛山市南海区狮山镇汀圃社区居委会丁东村新村西一巷1号西北侧,狮山镇,point,113.014767,23.205924,poi_name_fuzzy,0.84,,洪圣古庙,new_candidate,,狮山镇
IH_0123,不可移动文物Excel.xls,不可移动文物,古建筑,坛庙祠堂,尚未核定公布为文物保护单位的不可移动文物,白沙桥刘氏二世祠,清代,广东省佛山市南海区狮山镇白沙桥社区居委会白沙桥村仁兴里1号东侧,狮山镇,point,113.01353,23.085259,poi_name_fuzzy,0.84,,刘氏二世祠,new_candidate,,狮山镇
IH_0124,不可移动文物Excel.xls,不可移动文物,古建筑,学堂书院（及其他文化教育建筑）,尚未核定公布为文物保护单位的不可移动文物,作南家塾,清代,广东省佛山市南海区狮山镇莲子塘村委会西太村九巷1号侧,狮山镇,point,113.030542,23.122685,address_token_centroid,0.72,,狮山 (876 points),new_candidate,,狮山镇
IH_0125,不可移动文物Excel.xls,不可移动文物,古建筑,衙署官邸（及其他行政管理建筑）,尚未核定公布为文物保护单位的不可移动文物,泮边乡约,清代,广东省佛山市南海区狮山镇红星社区居委会泮边村文明里11号,狮山镇,point,113.030542,23.122685,address_token_centroid,0.72,,狮山 (876 points),new_candidate,,狮山镇
IH_0126,不可移动文物Excel.xls,不可移动文物,古建筑,坛庙祠堂,尚未核定公布为文物保护单位的不可移动文物,长贤钟氏大宗祠,清代,广东省佛山市南海区狮山镇罗洞村委会长贤村一巷1号右侧,狮山镇,point,113.113536,23.097179,poi_name_fuzzy,0.84,,钟氏大宗祠,new_candidate,,大沥镇
IH_0127,不可移动文物Excel.xls,不可移动文物,近现代重要史迹及代表性建筑,典型风格建筑或者构筑物,尚未核定公布为文物保护单位的不可移动文物,十义杨公祠,近现代,广东省佛山市南海区狮山镇红星社区居委会泮边村,狮山镇,point,113.030542,23.122685,address_token_centroid,0.72,,狮山 (876 points),new_candidate,,狮山镇
IH_0128,不可移动文物Excel.xls,不可移动文物,古建筑,坛庙祠堂,尚未核定公布为文物保护单位的不可移动文物,白鹤田李氏宗祠,清代,广东省佛山市南海区狮山镇红星社区居委会白鹤田村,狮山镇,point,112.99534,23.19254,poi_name_fuzzy,0.84,,李氏宗祠,new_candidate,,狮山镇
IH_0129,不可移动文物Excel.xls,不可移动文物,古建筑,坛庙祠堂,尚未核定公布为文物保护单位的不可移动文物,塘头白氏大宗祠,清代,广东省佛山市南海区狮山镇塘头社区居委会塘头村仁后里1号侧,狮山镇,point,113.030542,23.122685,address_token_centroid,0.72,,狮山 (876 points),new_candidate,,狮山镇
IH_0130,不可移动文物Excel.xls,不可移动文物,古建筑,坛庙祠堂,尚未核定公布为文物保护单位的不可移动文物,添润李公祠,清代,广东省佛山市南海区狮山镇红星社区居委会石头村村前6号,狮山镇,point,112.989743,23.199256,poi_name_exact,0.94,,添润李公祠,matched_poi_only,添润李公祠,狮山镇
IH_0131,不可移动文物Excel.xls,不可移动文物,古建筑,坛庙祠堂,尚未核定公布为文物保护单位的不可移动文物,养正蒙氏宗祠,清代,广东省佛山市南海区狮山镇罗村沙坑社区居委会养正村三巷1号,狮山镇,point,113.030542,23.122685,address_token_centroid,0.72,,狮山 (876 points),new_candidate,,狮山镇
IH_0132,不可移动文物Excel.xls,不可移动文物,古建筑,坛庙祠堂,尚未核定公布为文物保护单位的不可移动文物,子法刘公祠,清代,广东省佛山市南海区狮山镇官窑社区居委会厚西村,狮山镇,point,113.030542,23.122685,address_token_centroid,0.72,,狮山 (876 points),new_candidate,,狮山镇
IH_0133,不可移动文物Excel.xls,不可移动文物,古建筑,坛庙祠堂,尚未核定公布为文物保护单位的不可移动文物,澎边澎溪古庙,清代,广东省佛山市南海区狮山镇石澎村委会澎边村东边,狮山镇,point,113.039235,23.219168,poi_name_fuzzy,0.84,,澎溪古庙,new_candidate,,狮山镇
IH_0134,不可移动文物Excel.xls,不可移动文物,古建筑,坛庙祠堂,尚未核定公布为文物保护单位的不可移动文物,东谷吴公祠,清代,广东省佛山市南海区狮山镇吴屋村委会吴东村,狮山镇,point,113.030542,23.122685,address_token_centroid,0.72,,狮山 (876 points),new_candidate,,狮山镇
IH_0135,不可移动文物Excel.xls,不可移动文物,古建筑,坛庙祠堂,尚未核定公布为文物保护单位的不可移动文物,浩忠周公祠,清代,广东省佛山市南海区狮山镇永和村委会鸪西村,狮山镇,point,113.030542,23.122685,address_token_centroid,0.72,,狮山 (876 points),new_candidate,,狮山镇
IH_0136,不可移动文物Excel.xls,不可移动文物,古建筑,坛庙祠堂,尚未核定公布为文物保护单位的不可移动文物,大祖周公祠,清代,广东省佛山市南海区狮山镇永和村委会鸪西村,狮山镇,point,113.030542,23.122685,address_token_centroid,0.72,,狮山 (876 points),new_candidate,,狮山镇
IH_0137,不可移动文物Excel.xls,不可移动文物,古建筑,坛庙祠堂,尚未核定公布为文物保护单位的不可移动文物,简元杨公祠,清代,广东省佛山市南海区狮山镇红星社区居委会泮边村,狮山镇,point,113.030542,23.122685,address_token_centroid,0.72,,狮山 (876 points),new_candidate,,狮山镇
IH_0138,不可移动文物Excel.xls,不可移动文物,古建筑,学堂书院（及其他文化教育建筑）,尚未核定公布为文物保护单位的不可移动文物,大榄榄溪社学,清代,广东省佛山市南海区狮山镇大榄社区居委会大榄幼儿园内,狮山镇,point,113.02664,23.193956,poi_name_fuzzy,0.84,,大榄榄溪社学-大榄抗日救亡活动旧址,new_candidate,,狮山镇
IH_0139,不可移动文物Excel.xls,不可移动文物,古建筑,坛庙祠堂,尚未核定公布为文物保护单位的不可移动文物,沥紫水彭氏大宗祠,清代,广东省佛山市南海区狮山镇永安社区居委会沥紫水村,狮山镇,point,113.030542,23.122685,address_token_centroid,0.72,,狮山 (876 points),new_candidate,,狮山镇
IH_0140,不可移动文物Excel.xls,不可移动文物,古建筑,坛庙祠堂,尚未核定公布为文物保护单位的不可移动文物,谭南严氏宗祠,清代,广东省佛山市南海区狮山镇永安社区居委会谭南村,狮山镇,point,113.008989,23.141172,poi_name_fuzzy,0.84,,严氏宗祠,new_candidate,,狮山镇
IH_0141,不可移动文物Excel.xls,不可移动文物,古建筑,坛庙祠堂,尚未核定公布为文物保护单位的不可移动文物,善乐刘公祠,清代,广东省佛山市南海区狮山镇永安社区居委会古岗村,狮山镇,point,113.065563,23.217019,poi_name_exact,0.94,,善乐刘公祠,matched_poi_only,善乐刘公祠,狮山镇
IH_0142,不可移动文物Excel.xls,不可移动文物,古建筑,坛庙祠堂,尚未核定公布为文物保护单位的不可移动文物,古岗刘氏大宗祠,清代,广东省佛山市南海区狮山镇永安社区居委会古岗村,狮山镇,point,113.074893,23.225188,poi_name_fuzzy,0.84,,刘氏大宗祠,new_candidate,,狮山镇
IH_0143,不可移动文物Excel.xls,不可移动文物,古建筑,学堂书院（及其他文化教育建筑）,尚未核定公布为文物保护单位的不可移动文物,七甫铁网书屋,清代,广东省佛山市南海区狮山镇七甫社区居委会第九村七甫大街45号,狮山镇,point,113.084716,23.237324,poi_name_fuzzy,0.84,,铁网书屋,new_candidate,,狮山镇
IH_0144,不可移动文物Excel.xls,不可移动文物,古建筑,坛庙祠堂,尚未核定公布为文物保护单位的不可移动文物,大岗黄氏宗祠,清代,广东省佛山市南海区狮山镇群岗社区居委会大岗二村,狮山镇,point,113.105668,23.206358,poi_name_fuzzy,0.84,,黄氏宗祠,new_candidate,,里水镇
IH_0145,不可移动文物Excel.xls,不可移动文物,古建筑,坛庙祠堂,尚未核定公布为文物保护单位的不可移动文物,仲义唐公祠,清代,广东省佛山市南海区狮山镇唐边村委会仁福村一巷1号,狮山镇,point,113.030542,23.122685,address_token_centroid,0.72,,狮山 (876 points),new_candidate,,狮山镇
IH_0146,不可移动文物Excel.xls,不可移动文物,古建筑,坛庙祠堂,尚未核定公布为文物保护单位的不可移动文物,纯阳吕公祠,清代,广东省佛山市南海区狮山镇七甫社区居委会吕村村吕村公园内,狮山镇,point,113.087351,23.237694,poi_name_exact,0.94,,纯阳吕公祠,matched_poi_only,纯阳吕公祠,狮山镇
IH_0147,不可移动文物Excel.xls,不可移动文物,古建筑,坛庙祠堂,市级和县级文物保护单位,恒德徐公祠,清代,广东省佛山市南海区丹灶镇西联社区居委会五甲村五巷1号,丹灶镇,point,112.931257,23.089846,existing_anchor_name,0.98,恒德徐公祠,,duplicate_existing_anchor,恒德徐公祠,丹灶镇
IH_0148,不可移动文物Excel.xls,不可移动文物,古建筑,堤坝渠堰（及其他水利设施）,尚未核定公布为文物保护单位的不可移动文物,桑园围西堤,"宋辽西夏金元,明代,清代",广东省佛山市南海区九江镇河清社区居委会四村村北边,九江镇,point,112.959097,22.865251,town_representative_point,0.38,,,new_candidate,,九江镇
IH_0149,不可移动文物Excel.xls,不可移动文物,古建筑,坛庙祠堂,尚未核定公布为文物保护单位的不可移动文物,竹园头何氏宗祠,清代,广东省佛山市南海区狮山镇沙头社区居委会竹园头村,狮山镇,point,112.961625,22.967047,poi_name_fuzzy,0.84,,何氏宗祠,new_candidate,,西樵镇
IH_0150,不可移动文物Excel.xls,不可移动文物,古墓葬,普通墓葬,尚未核定公布为文物保护单位的不可移动文物,梁储父母墓,明代,广东省佛山市南海区里水镇石塘村委会漱珠岗,里水镇,point,113.138868,23.223757,town_representative_point,0.38,,,new_candidate,,里水镇
IH_0151,不可移动文物Excel.xls,不可移动文物,古墓葬,名人或贵族墓,尚未核定公布为文物保护单位的不可移动文物,姚大宁墓,清代,广东省佛山市南海区里水镇石塘村委会漱珠岗,里水镇,point,113.138868,23.223757,town_representative_point,0.38,,,new_candidate,,里水镇
IH_0152,不可移动文物Excel.xls,不可移动文物,近现代重要史迹及代表性建筑,传统民居,尚未核定公布为文物保护单位的不可移动文物,中西郑家西大院,近现代,广东省佛山市南海区九江镇下东村委会中西村489-492,九江镇,point,112.959097,22.865251,town_representative_point,0.38,,,new_candidate,,九江镇
IH_0153,不可移动文物Excel.xls,不可移动文物,近现代重要史迹及代表性建筑,依法审批后原址重建的不可移动文物，具有标志意义或典型意义。,尚未核定公布为文物保护单位的不可移动文物,朱九江先生纪念堂,近现代,广东省佛山市南海区九江镇儒林社区船栏街100号九江中学内,九江镇,point,113.026758,22.842008,poi_name_exact,0.94,,朱九江先生纪念堂,matched_poi_only,朱九江先生纪念堂,九江镇
IH_0154,不可移动文物Excel.xls,不可移动文物,古建筑,堤坝渠堰（及其他水利设施）,尚未核定公布为文物保护单位的不可移动文物,下东双涌口窦闸,清代,广东省佛山市南海区九江镇下东村委会南华村双涌红星大道观音堂对面,九江镇,point,112.959097,22.865251,town_representative_point,0.38,,,new_candidate,,九江镇
IH_0155,不可移动文物Excel.xls,不可移动文物,古墓葬,普通墓葬,尚未核定公布为文物保护单位的不可移动文物,华夏冯氏祖墓,宋辽西夏金元,广东省佛山市南海区西樵镇华夏村五甲村民小组七队,西樵镇,point,112.935322,22.941121,town_representative_point,0.38,,,new_candidate,,西樵镇
IH_0156,不可移动文物Excel.xls,不可移动文物,古建筑,池塘井泉,尚未核定公布为文物保护单位的不可移动文物,方井村方井,明代,广东省佛山市南海区西樵镇儒溪村委会方井村龙兴巷6号侧,西樵镇,point,112.949148,22.903461,poi_name_fuzzy,0.84,,儒溪方井村方井,new_candidate,,西樵镇
IH_0157,不可移动文物Excel.xls,不可移动文物,古建筑,池塘井泉,尚未核定公布为文物保护单位的不可移动文物,田心水井,"明代,清代",广东省佛山市南海区西樵镇新田村委会田心村大街高门楼3号侧,西樵镇,point,112.935322,22.941121,town_representative_point,0.38,,,new_candidate,,西樵镇
IH_0158,不可移动文物Excel.xls,不可移动文物,古建筑,坛庙祠堂,尚未核定公布为文物保护单位的不可移动文物,云庄陈公祠,清代,广东省佛山市南海区大沥镇白沙社区居委会陈溪村东街,大沥镇,point,113.19573,23.138543,poi_name_exact,0.94,,云庄陈公祠,matched_poi_only,云庄陈公祠,大沥镇
IH_0159,不可移动文物Excel.xls,不可移动文物,古建筑,坛庙祠堂,市级和县级文物保护单位,杜氏大宗祠,清代,广东省佛山市南海区大沥镇白沙村委会白沙村中心路涌边1巷12号侧,大沥镇,point,113.202257,23.133661,poi_name_exact,0.94,,杜氏大宗祠,matched_poi_only,杜氏大宗祠,大沥镇
IH_0160,不可移动文物Excel.xls,不可移动文物,古建筑,桥涵码头,市级和县级文物保护单位,三眼桥,明代,广东省佛山市南海区大沥镇河东社区居委会穗盐路,大沥镇,point,113.180671,23.099504,poi_name_exact,0.94,,三眼桥,matched_poi_only,三眼桥,大沥镇
IH_0161,不可移动文物Excel.xls,不可移动文物,古建筑,坛庙祠堂,尚未核定公布为文物保护单位的不可移动文物,六联冯氏宗祠,清代,广东省佛山市南海区大沥镇六联社区居委会南村村西区大街7号,大沥镇,point,113.172623,23.193748,poi_name_fuzzy,0.84,,冯氏宗祠,new_candidate,,里水镇
IH_0162,不可移动文物Excel.xls,不可移动文物,古建筑,坛庙祠堂,尚未核定公布为文物保护单位的不可移动文物,江心黎氏大宗祠,明代,广东省佛山市南海区大沥镇横江社区居委会江心村黎家祠街10号,大沥镇,point,113.046636,22.903789,poi_name_fuzzy,0.84,,黎氏大宗祠,new_candidate,,九江镇
IH_0163,不可移动文物Excel.xls,不可移动文物,古建筑,坛庙祠堂,尚未核定公布为文物保护单位的不可移动文物,六联天南圣裔,清代,广东省佛山市南海区大沥镇六联社区居委会南村村西区大街9号,大沥镇,point,113.175729,23.111513,poi_name_fuzzy,0.84,,天南圣裔,new_candidate,,大沥镇
IH_0164,不可移动文物Excel.xls,不可移动文物,古建筑,坛庙祠堂,尚未核定公布为文物保护单位的不可移动文物,华夏冯氏世庙,清代,广东省佛山市南海区西樵镇华夏村五甲村民小组显阳大街1号,西樵镇,point,112.935322,22.941121,town_representative_point,0.38,,,new_candidate,,西樵镇
IH_0165,不可移动文物Excel.xls,不可移动文物,古建筑,坛庙祠堂,尚未核定公布为文物保护单位的不可移动文物,横南潮湾公祠,清代,广东省佛山市南海区狮山镇横岗社区居委会横南村弘农街3号,狮山镇,point,113.065557,23.098537,poi_name_fuzzy,0.84,,潮湾公祠,new_candidate,,狮山镇
IH_0166,不可移动文物Excel.xls,不可移动文物,古建筑,池塘井泉,尚未核定公布为文物保护单位的不可移动文物,力生水井,明代,广东省佛山市南海区狮山镇谭边社区居委会力生村力生街二巷1号侧,狮山镇,point,113.030542,23.122685,address_token_centroid,0.72,,狮山 (876 points),new_candidate,,狮山镇
IH_0167,不可移动文物Excel.xls,不可移动文物,近现代重要史迹及代表性建筑,其他近现代代表性建筑,尚未核定公布为文物保护单位的不可移动文物,西头生产队旧址,近现代,广东省佛山市南海区狮山镇谭边社区居委会西头村西头街一巷2号,狮山镇,point,113.030542,23.122685,address_token_centroid,0.72,,狮山 (876 points),new_candidate,,狮山镇
IH_0168,不可移动文物Excel.xls,不可移动文物,古建筑,坛庙祠堂,尚未核定公布为文物保护单位的不可移动文物,旋湾李氏大宗祠,清代,广东省佛山市南海区狮山镇横岗社区居委会旋湾村街前2号,狮山镇,point,113.015703,23.041153,poi_name_fuzzy,0.84,,李氏大宗祠,new_candidate,,狮山镇
IH_0169,不可移动文物Excel.xls,不可移动文物,古建筑,坛庙祠堂,尚未核定公布为文物保护单位的不可移动文物,湖马陈氏宗祠,清代,广东省佛山市南海区大沥镇沥北社区居委会湖马村大街启明里15号侧,大沥镇,point,113.146747,23.131128,poi_name_fuzzy,0.84,,陈氏宗祠,new_candidate,,大沥镇
IH_0170,不可移动文物Excel.xls,不可移动文物,古建筑,坛庙祠堂,尚未核定公布为文物保护单位的不可移动文物,坎东孔氏宗祠,清代,广东省佛山市南海区大沥镇沥北社区居委会坎东村朝阳街祠前北巷1号侧,大沥镇,point,113.124705,23.157129,poi_name_fuzzy,0.84,,孔氏宗祠,new_candidate,,里水镇
IH_0171,不可移动文物Excel.xls,不可移动文物,古建筑,学堂书院（及其他文化教育建筑）,尚未核定公布为文物保护单位的不可移动文物,抱伦秋池公书舍,清代,广东省佛山市南海区大沥镇沥北社区居委会抱伦村武城祠道8号,大沥镇,point,113.145463,23.118352,town_representative_point,0.38,,,new_candidate,,大沥镇
IH_0172,不可移动文物Excel.xls,不可移动文物,古建筑,坛庙祠堂,尚未核定公布为文物保护单位的不可移动文物,抱伦宗圣公家庙,清代,广东省佛山市南海区大沥镇沥北社区居委会抱伦村武城祠道2号,大沥镇,point,113.103535,23.121597,poi_name_fuzzy,0.84,,宗圣公家庙,new_candidate,,大沥镇
IH_0173,不可移动文物Excel.xls,不可移动文物,古建筑,坛庙祠堂,尚未核定公布为文物保护单位的不可移动文物,坎南梁氏宗祠,清代,广东省佛山市南海区大沥镇沥北社区居委会坎南村坎南大街1巷1号侧,大沥镇,point,113.125926,23.13648,poi_name_fuzzy,0.84,,梁氏宗祠,new_candidate,,大沥镇
IH_0174,不可移动文物Excel.xls,不可移动文物,古建筑,坛庙祠堂,尚未核定公布为文物保护单位的不可移动文物,雅窑黄氏宗祠,"明代,清代",广东省佛山市南海区大沥镇雅瑶社区居委会东约村中环街六巷2号侧,大沥镇,point,113.105668,23.206358,poi_name_fuzzy,0.84,,黄氏宗祠,new_candidate,,里水镇
IH_0175,不可移动文物Excel.xls,不可移动文物,古建筑,坛庙祠堂,尚未核定公布为文物保护单位的不可移动文物,岗东何氏宗祠,清代,广东省佛山市南海区大沥镇雅瑶社区居委会岗东村大街13号侧,大沥镇,point,112.961625,22.967047,poi_name_fuzzy,0.84,,何氏宗祠,new_candidate,,西樵镇
IH_0176,不可移动文物Excel.xls,不可移动文物,古建筑,坛庙祠堂,尚未核定公布为文物保护单位的不可移动文物,罗城林氏宗祠,清代,广东省佛山市南海区大沥镇雅瑶社区居委会罗城村大街南八巷7号,大沥镇,point,113.146761,23.234524,poi_name_fuzzy,0.84,,林氏宗祠,new_candidate,,里水镇
IH_0177,不可移动文物Excel.xls,不可移动文物,古建筑,坛庙祠堂,尚未核定公布为文物保护单位的不可移动文物,大第周公祠,清代,广东省佛山市南海区大沥镇太平社区居委会冲表村北大街八巷1号侧,大沥镇,point,113.099306,23.111276,poi_name_exact,0.94,,大第周公祠,matched_poi_only,大第周公祠,大沥镇
IH_0178,不可移动文物Excel.xls,不可移动文物,古建筑,坛庙祠堂,尚未核定公布为文物保护单位的不可移动文物,白界许氏宗祠,清代,广东省佛山市南海区大沥镇太平社区居委会白界村东街迎阳巷1号侧,大沥镇,point,113.071269,23.126967,poi_name_fuzzy,0.84,,许氏宗祠,new_candidate,,狮山镇
IH_0179,不可移动文物Excel.xls,不可移动文物,古建筑,坛庙祠堂,尚未核定公布为文物保护单位的不可移动文物,西村许氏大宗祠,清代,广东省佛山市南海区大沥镇太平社区居委会西村村北队北街八巷1号侧,大沥镇,point,113.095484,23.099346,poi_name_fuzzy,0.84,,许氏大宗祠,new_candidate,,大沥镇
IH_0180,不可移动文物Excel.xls,不可移动文物,古建筑,坛庙祠堂,尚未核定公布为文物保护单位的不可移动文物,西村李氏大宗祠,清代,广东省佛山市南海区大沥镇太平社区居委会西村村西街西八巷1号,大沥镇,point,113.015703,23.041153,poi_name_fuzzy,0.84,,李氏大宗祠,new_candidate,,狮山镇
IH_0181,不可移动文物Excel.xls,不可移动文物,古建筑,坛庙祠堂,尚未核定公布为文物保护单位的不可移动文物,竹窓许公祠,"明代,清代",广东省佛山市南海区大沥镇太平社区居委会北海村村前街1号侧,大沥镇,point,113.09702,23.109516,poi_name_exact,0.94,,竹窓许公祠,matched_poi_only,竹窓许公祠,大沥镇
IH_0182,不可移动文物Excel.xls,不可移动文物,古建筑,坛庙祠堂,尚未核定公布为文物保护单位的不可移动文物,奕世朝议大夫黎公祠,清代,广东省佛山市南海区大沥镇雅瑶社区居委会奕世村九巷侧,大沥镇,point,113.143481,23.130912,poi_name_fuzzy,0.84,,朝议大夫黎公祠,new_candidate,,大沥镇
IH_0183,不可移动文物Excel.xls,不可移动文物,古建筑,桥涵码头,尚未核定公布为文物保护单位的不可移动文物,碧华水步,清代,广东省佛山市南海区大沥镇东秀社区居委会碧华村张王爷坊47号前,大沥镇,point,113.145463,23.118352,town_representative_point,0.38,,,new_candidate,,大沥镇
IH_0184,不可移动文物Excel.xls,不可移动文物,古建筑,坛庙祠堂,市级和县级文物保护单位,黄岐梁氏大宗祠,清代,广东省佛山市南海区大沥镇黄岐社区居委会岐南村岐西大街65号侧,大沥镇,point,113.131515,23.153857,poi_name_exact,0.94,,梁氏大宗祠,matched_poi_only,梁氏大宗祠,里水镇
IH_0185,不可移动文物Excel.xls,不可移动文物,近现代重要史迹及代表性建筑,医疗卫生建筑,尚未核定公布为文物保护单位的不可移动文物,岐阳共济善堂,近现代,广东省佛山市南海区大沥镇岐城社区岐阳二路1号,大沥镇,point,113.145463,23.118352,town_representative_point,0.38,,,new_candidate,,大沥镇
IH_0186,不可移动文物Excel.xls,不可移动文物,近现代重要史迹及代表性建筑,其他近现代代表性建筑,尚未核定公布为文物保护单位的不可移动文物,李潘生产队旧址,近现代,广东省佛山市南海区大沥镇沥中社区居委会李潘村大巷1号侧,大沥镇,point,113.114715,23.12061,poi_name_exact,0.94,,李潘生产队旧址,matched_poi_only,李潘生产队旧址,大沥镇
IH_0187,不可移动文物Excel.xls,不可移动文物,古建筑,坛庙祠堂,尚未核定公布为文物保护单位的不可移动文物,李潘李氏大宗祠,清代,广东省佛山市南海区大沥镇沥中社区居委会李潘村大巷1号,大沥镇,point,113.015703,23.041153,poi_name_fuzzy,0.84,,李氏大宗祠,new_candidate,,狮山镇
IH_0188,不可移动文物Excel.xls,不可移动文物,古建筑,池塘井泉,尚未核定公布为文物保护单位的不可移动文物,隔岗水井,明代,广东省佛山市南海区大沥镇沥西社区居委会隔岗村大街南13巷1号北侧,大沥镇,point,113.145463,23.118352,town_representative_point,0.38,,,new_candidate,,大沥镇
IH_0189,不可移动文物Excel.xls,不可移动文物,古建筑,驿站会馆（及其他交通道路设施、旅行服务设施）,尚未核定公布为文物保护单位的不可移动文物,龙湾古道,清代,广东省佛山市南海区大沥镇沥北社区居委会龙湾村南四巷巷前,大沥镇,point,113.114446,23.129255,poi_name_exact,0.94,,龙湾古道,matched_poi_only,龙湾古道,大沥镇
IH_0190,不可移动文物Excel.xls,不可移动文物,古建筑,学堂书院（及其他文化教育建筑）,尚未核定公布为文物保护单位的不可移动文物,石步朴庵公书舍,清代,广东省佛山市南海区大沥镇太平社区居委会石步村石步陈大街十三巷1号,大沥镇,point,113.145463,23.118352,town_representative_point,0.38,,,new_candidate,,大沥镇
IH_0191,不可移动文物Excel.xls,不可移动文物,古建筑,坛庙祠堂,尚未核定公布为文物保护单位的不可移动文物,石步刘氏大宗祠,明代,广东省佛山市南海区大沥镇太平社区居委会石步村石步刘大街十二巷侧,大沥镇,point,113.074893,23.225188,poi_name_fuzzy,0.84,,刘氏大宗祠,new_candidate,,狮山镇
IH_0192,不可移动文物Excel.xls,不可移动文物,近现代重要史迹及代表性建筑,其他近现代代表性建筑,尚未核定公布为文物保护单位的不可移动文物,风雅队旧址,近现代,广东省佛山市南海区大沥镇沥西社区居委会风雅村村前1号,大沥镇,point,113.145463,23.118352,town_representative_point,0.38,,,new_candidate,,大沥镇
IH_0193,不可移动文物Excel.xls,不可移动文物,古建筑,坛庙祠堂,尚未核定公布为文物保护单位的不可移动文物,风雅宗圣公家庙,"明代,清代",广东省佛山市南海区大沥镇沥西社区居委会风雅村街前11号,大沥镇,point,113.103535,23.121597,poi_name_fuzzy,0.84,,宗圣公家庙,new_candidate,,大沥镇
IH_0194,不可移动文物Excel.xls,不可移动文物,古建筑,桥涵码头,尚未核定公布为文物保护单位的不可移动文物,敦根正路水步,清代,广东省佛山市南海区九江镇敦根社区居委会敦根村村口新涌旁,九江镇,point,112.959097,22.865251,town_representative_point,0.38,,,new_candidate,,九江镇
IH_0195,不可移动文物Excel.xls,不可移动文物,近现代重要史迹及代表性建筑,交通道路设施,尚未核定公布为文物保护单位的不可移动文物,风水百足桥,近现代,广东省佛山市南海区九江镇璜矶社区居委会风水村,九江镇,point,112.98,22.86,existing_anchor_name,0.98,风水百足桥,,duplicate_existing_anchor,风水百足桥,九江镇
IH_0196,不可移动文物Excel.xls,不可移动文物,古文化遗址,水利设施遗址,尚未核定公布为文物保护单位的不可移动文物,塱心大有围古伦闸遗址,清代,广东省佛山市南海区丹灶镇塱心村委会张家村排灌站旁,丹灶镇,point,112.92091,23.06365,town_representative_point,0.38,,,new_candidate,,丹灶镇
IH_0197,不可移动文物Excel.xls,不可移动文物,古建筑,坛庙祠堂,市级和县级文物保护单位,信存何公祠,清代,广东省佛山市南海区桂城街道叠北社区居委会东胜村东约,桂城街道,point,113.126349,23.065265,poi_name_exact,0.94,,信存何公祠,matched_poi_only,信存何公祠,桂城街道
IH_0198,不可移动文物Excel.xls,不可移动文物,古建筑,坛庙祠堂,尚未核定公布为文物保护单位的不可移动文物,甘蕉华光古庙,清代,广东省佛山市南海区里水镇甘蕉社区居委会南门坊2号,里水镇,point,113.138868,23.223757,town_representative_point,0.38,,,new_candidate,,里水镇
IH_0199,不可移动文物Excel.xls,不可移动文物,古建筑,寺观塔阁（及其他宗教建筑）,省级文物保护单位,云泉仙馆,清代,广东省佛山市南海区西樵镇樵园社区西樵山白云洞风景区白云峰西北麓,西樵镇,point,112.96566,22.932927,existing_anchor_name,0.98,云泉仙馆,,duplicate_existing_anchor,云泉仙馆,西樵镇
IH_0200,不可移动文物Excel.xls,不可移动文物,近现代重要史迹及代表性建筑,宗教建筑,市级和县级文物保护单位,龙母庙,近现代,广东省佛山市南海区西樵镇樵园社区西樵山蟠龙洞内,西樵镇,point,112.973519,22.939989,existing_anchor_name,0.98,龙母庙,,duplicate_existing_anchor,龙母庙,西樵镇
IH_0201,不可移动文物Excel.xls,不可移动文物,古建筑,坛庙祠堂,尚未核定公布为文物保护单位的不可移动文物,潭头李氏大宗祠,清代,广东省佛山市南海区桂城街道叠北社区居委会潭头村东约276号侧,桂城街道,point,113.015703,23.041153,poi_name_fuzzy,0.84,,李氏大宗祠,new_candidate,,狮山镇
IH_0202,不可移动文物Excel.xls,不可移动文物,古建筑,寺观塔阁（及其他宗教建筑）,市级和县级文物保护单位,白云古寺,清代,广东省佛山市南海区西樵镇樵园社区西樵山白云洞风景区,西樵镇,point,112.964364,22.933846,existing_anchor_name,0.98,白云古寺,,duplicate_existing_anchor,白云古寺,西樵镇
IH_0203,不可移动文物Excel.xls,不可移动文物,古建筑,亭台楼阙（及其他景观建筑、戏曲演出建筑、天文观测建筑）,市级和县级文物保护单位,小云亭,清代,广东省佛山市南海区西樵镇樵园社区西樵山白云洞风景区,西樵镇,point,112.966142,22.932936,existing_anchor_name,0.98,小云亭,,duplicate_existing_anchor,小云亭,西樵镇
IH_0204,不可移动文物Excel.xls,不可移动文物,古建筑,牌坊影壁,市级和县级文物保护单位,第弌洞天牌坊,清代,广东省佛山市南海区西樵镇樵园社区西樵山白云洞风景区,西樵镇,point,112.964717,22.933533,existing_anchor_name,0.98,第弌洞天牌坊,,duplicate_existing_anchor,第弌洞天牌坊,西樵镇
IH_0205,不可移动文物Excel.xls,不可移动文物,古建筑,亭台楼阙（及其他景观建筑、戏曲演出建筑、天文观测建筑）,市级和县级文物保护单位,湖山胜迹门楼,清代,广东省佛山市南海区西樵镇樵园社区西樵山白云洞风景区,西樵镇,point,112.965363,22.933235,existing_anchor_name,0.98,湖山胜迹门楼,,duplicate_existing_anchor,湖山胜迹门楼,西樵镇
IH_0206,不可移动文物Excel.xls,不可移动文物,古建筑,亭台楼阙（及其他景观建筑、戏曲演出建筑、天文观测建筑）,市级和县级文物保护单位,奎光楼,清代,广东省佛山市南海区西樵镇樵园社区西樵山白云洞风景区,西樵镇,point,112.964276,22.933947,existing_anchor_name,0.98,奎光楼,,duplicate_existing_anchor,奎光楼,西樵镇
IH_0207,不可移动文物Excel.xls,不可移动文物,古建筑,亭台楼阙（及其他景观建筑、戏曲演出建筑、天文观测建筑）,尚未核定公布为文物保护单位的不可移动文物,孔溪焚香亭,清代,广东省佛山市南海区桂城街道夏东社区居委会孔溪村西街四巷23号前,桂城街道,point,113.182861,23.045303,poi_name_exact,0.94,,孔溪焚香亭,matched_poi_only,孔溪焚香亭,桂城街道
IH_0208,不可移动文物Excel.xls,不可移动文物,古建筑,坛庙祠堂,尚未核定公布为文物保护单位的不可移动文物,西河林氏大宗祠,"明代,清代",广东省佛山市南海区桂城街道平北社区居委会西河村北街6号,桂城街道,point,113.197454,23.039498,poi_name_fuzzy,0.84,,林氏大宗祠,new_candidate,,桂城街道
IH_0209,不可移动文物Excel.xls,不可移动文物,古建筑,学堂书院（及其他文化教育建筑）,尚未核定公布为文物保护单位的不可移动文物,奕西桂水社学,清代,广东省佛山市南海区桂城街道东区社区居委会奕西村,桂城街道,point,113.15563,23.044054,address_token_centroid,0.72,,桂城街 (925 points),new_candidate,,桂城街道
IH_0210,不可移动文物Excel.xls,不可移动文物,古建筑,坛庙祠堂,尚未核定公布为文物保护单位的不可移动文物,成庄何公祠,清代,广东省佛山市南海区桂城街道叠南社区居委会茶基村425号,桂城街道,point,113.1195,23.054701,poi_name_exact,0.94,,成庄何公祠,matched_poi_only,成庄何公祠,桂城街道
IH_0211,不可移动文物Excel.xls,不可移动文物,古建筑,桥涵码头,市级和县级文物保护单位,三山三眼桥,清代,广东省佛山市南海区桂城街道东区社区居委会禾仰村,桂城街道,point,113.15563,23.044054,address_token_centroid,0.72,,桂城街 (925 points),new_candidate,,桂城街道
IH_0212,不可移动文物Excel.xls,不可移动文物,古建筑,坛庙祠堂,尚未核定公布为文物保护单位的不可移动文物,茶基何氏宗祠,清代,广东省佛山市南海区桂城街道叠南社区居委会茶基村427号,桂城街道,point,112.961625,22.967047,poi_name_fuzzy,0.84,,何氏宗祠,new_candidate,,西樵镇
IH_0213,不可移动文物Excel.xls,不可移动文物,古建筑,坛庙祠堂,尚未核定公布为文物保护单位的不可移动文物,桓庚李公祠,清代,广东省佛山市南海区桂城街道叠北社区居委会潭头村北约749号,桂城街道,point,113.138345,23.065787,poi_name_exact,0.94,,桓庚李公祠,matched_poi_only,桓庚李公祠,桂城街道
IH_0214,不可移动文物Excel.xls,不可移动文物,古建筑,坛庙祠堂,尚未核定公布为文物保护单位的不可移动文物,茶基三圣宫,清代,广东省佛山市南海区桂城街道叠南社区居委会茶基村428号,桂城街道,point,113.125265,23.052211,poi_name_exact,0.94,,茶基三圣宫,matched_poi_only,茶基三圣宫,桂城街道
IH_0215,不可移动文物Excel.xls,不可移动文物,古建筑,城垣城楼（及其他军事建筑及设施）,市级和县级文物保护单位,江头江氏宗祠,清代,广东省佛山市南海区桂城街道叠南社区居委会江头村009号,桂城街道,point,113.086935,23.065586,poi_name_fuzzy,0.84,,江氏宗祠,new_candidate,,狮山镇
IH_0216,不可移动文物Excel.xls,不可移动文物,古建筑,坛庙祠堂,市级和县级文物保护单位,遁叟江公祠,清代,广东省佛山市南海区桂城街道叠南社区居委会江头村150号东侧,桂城街道,point,113.14096,23.062926,poi_name_exact,0.94,,遁叟江公祠,matched_poi_only,遁叟江公祠,桂城街道
IH_0217,不可移动文物Excel.xls,不可移动文物,古建筑,坛庙祠堂,尚未核定公布为文物保护单位的不可移动文物,南崖刘公祠,清代,广东省佛山市南海区狮山镇刘边村委会东头村东北部,狮山镇,point,113.030542,23.122685,address_token_centroid,0.72,,狮山 (876 points),new_candidate,,狮山镇
IH_0218,不可移动文物Excel.xls,不可移动文物,古文化遗址,聚落址,尚未核定公布为文物保护单位的不可移动文物,灶岗贝丘遗址,新石器时代,广东省佛山市南海区西樵镇大同社区居委会柏山村灶岗西麓,西樵镇,point,112.935322,22.941121,town_representative_point,0.38,,,new_candidate,,西樵镇
IH_0219,不可移动文物Excel.xls,不可移动文物,古建筑,坛庙祠堂,尚未核定公布为文物保护单位的不可移动文物,文升刘公祠,清代,广东省佛山市南海区桂城街道叠南社区居委会陈丰村245号,桂城街道,point,113.135339,23.057708,poi_name_exact,0.94,,文升刘公祠,matched_poi_only,文升刘公祠,桂城街道
IH_0220,不可移动文物Excel.xls,不可移动文物,古建筑,坛庙祠堂,尚未核定公布为文物保护单位的不可移动文物,陈丰刘氏宗祠,清代,广东省佛山市南海区桂城街道叠南社区居委会陈丰村138号,桂城街道,point,113.105078,23.208956,poi_name_fuzzy,0.84,,刘氏宗祠,new_candidate,,里水镇
IH_0221,不可移动文物Excel.xls,不可移动文物,古建筑,坛庙祠堂,省级文物保护单位,七甫陈氏宗祠,明代,广东省佛山市南海区狮山镇七甫社区居委会铁网坊南侧,狮山镇,point,113.146747,23.131128,poi_name_fuzzy,0.84,,陈氏宗祠,new_candidate,,大沥镇
IH_0222,不可移动文物Excel.xls,不可移动文物,古建筑,坛庙祠堂,尚未核定公布为文物保护单位的不可移动文物,南村陈家祠,明代,广东省佛山市南海区桂城街道中区社区居委会南村村陈地坊二巷,桂城街道,point,113.15563,23.044054,address_token_centroid,0.72,,桂城街 (925 points),new_candidate,,桂城街道
IH_0223,不可移动文物Excel.xls,不可移动文物,古文化遗址,聚落址,省级文物保护单位,南蛇岗遗址,新石器时代,广东省佛山市南海区西樵镇山根社区居委会樟坑村蚺蛇岗东南坡,西樵镇,point,112.995224,22.921764,existing_anchor_name,0.98,南蛇岗遗址,,duplicate_existing_anchor,南蛇岗遗址,西樵镇
IH_0224,不可移动文物Excel.xls,不可移动文物,古文化遗址,矿冶遗址,市级和县级文物保护单位,铁屎墩冶炼遗址,清代,广东省佛山市南海区西樵镇百西社区居委会大地村,西樵镇,point,112.922117,22.955526,existing_anchor_name,0.98,铁屎墩冶炼遗址,,duplicate_existing_anchor,铁屎墩冶炼遗址,西樵镇
IH_0225,不可移动文物Excel.xls,不可移动文物,近现代重要史迹及代表性建筑,依法审批后原址重建的不可移动文物，具有标志意义或典型意义。,尚未核定公布为文物保护单位的不可移动文物,西樵山巃嵸阁,近现代,广东省佛山市南海区西樵镇樵园社区西樵山白云洞风景区,西樵镇,point,112.972637,22.930869,address_token_centroid,0.72,,西樵山 (157 points),new_candidate,,西樵镇
IH_0226,不可移动文物Excel.xls,不可移动文物,古建筑,坛庙祠堂,市级和县级文物保护单位,百西潘氏大宗祠,清代,广东省佛山市南海区西樵镇百西社区居委会村头村百西幼儿园侧,西樵镇,point,112.920346,22.962484,existing_anchor_name,0.98,百西潘氏大宗祠,,duplicate_existing_anchor,百西潘氏大宗祠,西樵镇
IH_0227,不可移动文物Excel.xls,不可移动文物,古建筑,坛庙祠堂,尚未核定公布为文物保护单位的不可移动文物,简村陈氏大祠堂,清代,广东省佛山市南海区西樵镇简村社区居委会简村小学内,西樵镇,point,112.949856,22.945958,address_token_centroid,0.72,,简村 (9 points),new_candidate,,西樵镇
IH_0228,不可移动文物Excel.xls,不可移动文物,古建筑,坛庙祠堂,省级文物保护单位,绮亭陈公祠,清代,广东省佛山市南海区西樵镇简村社区居委会幼儿园东侧,西樵镇,point,112.95341,22.945087,existing_anchor_name,0.98,绮亭陈公祠,,duplicate_existing_anchor,绮亭陈公祠,西樵镇
IH_0229,不可移动文物Excel.xls,不可移动文物,古建筑,坛庙祠堂,尚未核定公布为文物保护单位的不可移动文物,简村圣堂古庙,清代,广东省佛山市南海区西樵镇简村社区居委会岗头村庙行7号侧,西樵镇,point,112.949856,22.945958,address_token_centroid,0.72,,简村 (9 points),new_candidate,,西樵镇
IH_0230,不可移动文物Excel.xls,不可移动文物,古建筑,堤坝渠堰（及其他水利设施）,尚未核定公布为文物保护单位的不可移动文物,立新老家石围,清代,广东省佛山市南海区西樵镇儒溪村委会立新村十三巷1号前,西樵镇,point,112.935322,22.941121,town_representative_point,0.38,,,new_candidate,,西樵镇
IH_0231,不可移动文物Excel.xls,不可移动文物,古建筑,坛庙祠堂,尚未核定公布为文物保护单位的不可移动文物,稔岗梁氏宗祠,清代,广东省佛山市南海区西樵镇稔岗社区居委会第一村28号南侧,西樵镇,point,113.125926,23.13648,poi_name_fuzzy,0.84,,梁氏宗祠,new_candidate,,大沥镇
IH_0232,不可移动文物Excel.xls,不可移动文物,古建筑,桥涵码头,尚未核定公布为文物保护单位的不可移动文物,儒溪拱桥,清代,广东省佛山市南海区西樵镇儒溪村委会大街村八巷6号侧,西樵镇,point,112.950778,22.906641,poi_name_exact,0.94,,儒溪拱桥,matched_poi_only,儒溪拱桥,西樵镇
IH_0233,不可移动文物Excel.xls,不可移动文物,古建筑,坛庙祠堂,尚未核定公布为文物保护单位的不可移动文物,乐翁崔公祠,清代,广东省佛山市南海区西樵镇山根社区居委会下沙村联魁第2号,西樵镇,point,112.985257,22.935854,address_token_centroid,0.72,,西樵镇山 (30 points),new_candidate,,西樵镇
IH_0234,不可移动文物Excel.xls,不可移动文物,古建筑,坛庙祠堂,尚未核定公布为文物保护单位的不可移动文物,荣聚邓公祠,清代,广东省佛山市南海区西樵镇东碧社区居委会迳边村,西樵镇,point,112.935322,22.941121,town_representative_point,0.38,,,new_candidate,,西樵镇
IH_0235,不可移动文物Excel.xls,不可移动文物,近现代重要史迹及代表性建筑,典型风格建筑或者构筑物,尚未核定公布为文物保护单位的不可移动文物,朝山红楼,近现代,广东省佛山市南海区西樵镇朝山社区居委会西边村大社街西16号,西樵镇,point,112.98,22.89,existing_anchor_name,0.98,朝山红楼,,duplicate_existing_anchor,朝山红楼,西樵镇
IH_0236,不可移动文物Excel.xls,不可移动文物,近现代重要史迹及代表性建筑,文化教育建筑及附属物,尚未核定公布为文物保护单位的不可移动文物,凰岗联队文化室旧址,近现代,广东省佛山市南海区西樵镇岭西村委会凰岗十四村大街1号,西樵镇,point,112.935322,22.941121,town_representative_point,0.38,,,new_candidate,,西樵镇
IH_0237,不可移动文物Excel.xls,不可移动文物,古建筑,牌坊影壁,尚未核定公布为文物保护单位的不可移动文物,东方百龄人瑞牌楼,清代,广东省佛山市南海区西樵镇显岗社区居委会东方村东方大街22号,西樵镇,point,112.991183,22.901041,poi_name_fuzzy,0.84,,百龄人瑞,new_candidate,,西樵镇
IH_0238,不可移动文物Excel.xls,不可移动文物,古建筑,坛庙祠堂,尚未核定公布为文物保护单位的不可移动文物,秀山戚公祠,清代,广东省佛山市南海区里水镇草场社区居委会蟹坑村东部上约大街5号,里水镇,point,113.138868,23.223757,town_representative_point,0.38,,,new_candidate,,里水镇
IH_0239,不可移动文物Excel.xls,不可移动文物,古建筑,坛庙祠堂,尚未核定公布为文物保护单位的不可移动文物,展图戚公祠,清代,广东省佛山市南海区里水镇草场社区居委会蟹坑村东部上约大街4号,里水镇,point,113.193187,23.196828,poi_name_exact,0.94,,展图戚公祠,matched_poi_only,展图戚公祠,里水镇
IH_0240,不可移动文物Excel.xls,不可移动文物,古建筑,坛庙祠堂,尚未核定公布为文物保护单位的不可移动文物,尔材梁公祠,"明代,清代",广东省佛山市南海区狮山镇狮岭村委会大岗村环村一街维新巷1号,狮山镇,point,113.030542,23.122685,address_token_centroid,0.72,,狮山 (876 points),new_candidate,,狮山镇
IH_0241,不可移动文物Excel.xls,不可移动文物,古建筑,坛庙祠堂,尚未核定公布为文物保护单位的不可移动文物,柏山傅氏大宗祠,清代,广东省佛山市南海区西樵镇大同社区居委会柏山村东平社68号,西樵镇,point,112.935322,22.941121,town_representative_point,0.38,,,new_candidate,,西樵镇
IH_0242,不可移动文物Excel.xls,不可移动文物,古建筑,坛庙祠堂,尚未核定公布为文物保护单位的不可移动文物,海边梁氏宗祠,清代,广东省佛山市南海区西樵镇民乐社区居委会海边村四街1号侧,西樵镇,point,113.125926,23.13648,poi_name_fuzzy,0.84,,梁氏宗祠,new_candidate,,大沥镇
IH_0243,不可移动文物Excel.xls,不可移动文物,古建筑,坛庙祠堂,市级和县级文物保护单位,南亭麦公祠,清代,广东省佛山市南海区西樵镇七星村委会凤台村凤起巷1号,西樵镇,point,112.935322,22.941121,town_representative_point,0.38,,,new_candidate,,西樵镇
IH_0244,不可移动文物Excel.xls,不可移动文物,近现代重要史迹及代表性建筑,名人故、旧居,市级和县级文物保护单位,傅老榕旧居,近现代,广东省佛山市南海区西樵镇东碧社区西樵山碧云村55号,西樵镇,point,112.981371,22.928312,existing_anchor_name,0.98,傅老榕旧居,,duplicate_existing_anchor,傅老榕旧居,西樵镇
IH_0245,不可移动文物Excel.xls,不可移动文物,近现代重要史迹及代表性建筑,名人墓,尚未核定公布为文物保护单位的不可移动文物,马慈航墓,近现代,广东省佛山市南海区西樵镇东碧社区西樵山碧云村钵子峰下,西樵镇,point,112.935322,22.941121,town_representative_point,0.38,,,new_candidate,,西樵镇
IH_0246,不可移动文物Excel.xls,不可移动文物,古墓葬,普通墓葬,尚未核定公布为文物保护单位的不可移动文物,西樵山罗氏合墓,宋辽西夏金元,广东省佛山市南海区西樵镇东碧社区西樵山碧云村钵子峰北,西樵镇,point,112.972637,22.930869,address_token_centroid,0.72,,西樵山 (157 points),new_candidate,,西樵镇
IH_0247,不可移动文物Excel.xls,不可移动文物,古建筑,堤坝渠堰（及其他水利设施）,省级文物保护单位,民乐窦,清代,广东省佛山市南海区西樵镇民乐社区居委会民乐圩下北街2号北街,西樵镇,point,112.935322,22.941121,town_representative_point,0.38,,,new_candidate,,西樵镇
IH_0248,不可移动文物Excel.xls,不可移动文物,近现代重要史迹及代表性建筑,典型风格建筑或者构筑物,市级和县级文物保护单位,傅氏宗祠,近现代,广东省佛山市南海区西樵镇东碧社区西樵山碧云村,西樵镇,point,112.981742,22.925328,existing_anchor_name,0.98,傅氏宗祠,,duplicate_existing_anchor,傅氏宗祠,西樵镇
IH_0249,不可移动文物Excel.xls,不可移动文物,古文化遗址,聚落址,省级文物保护单位,鱿鱼岗遗址,"新石器时代,夏商周（含春秋）",广东省佛山市南海区西樵镇百西社区居委会水边村鱿鱼岗,西樵镇,point,112.914946,22.957935,existing_anchor_name,0.98,鱿鱼岗遗址,,duplicate_existing_anchor,鱿鱼岗遗址,西樵镇
IH_0250,不可移动文物Excel.xls,不可移动文物,古建筑,池塘井泉,市级和县级文物保护单位,西樵山无叶井,"明代,清代",广东省佛山市南海区西樵镇东碧社区西樵山碧云村村口,西樵镇,point,112.980731,22.928262,existing_anchor_name,0.98,西樵山无叶井,,duplicate_existing_anchor,西樵山无叶井,西樵镇
IH_0251,不可移动文物Excel.xls,不可移动文物,石窟寺及石刻,摩崖石刻,市级和县级文物保护单位,白云洞摩崖石刻,"明代,清代",广东省佛山市南海区西樵镇樵园社区西樵山白云洞风景区。,西樵镇,point,112.964912,22.933621,existing_anchor_name,0.98,白云洞摩崖石刻,,duplicate_existing_anchor,白云洞摩崖石刻,西樵镇
IH_0252,不可移动文物Excel.xls,不可移动文物,古建筑,亭台楼阙（及其他景观建筑、戏曲演出建筑、天文观测建筑）,市级和县级文物保护单位,枕流亭,清代,广东省佛山市南海区西樵镇樵园社区西樵山白云洞风景区应潮湖旁边,西樵镇,point,112.964888,22.932102,existing_anchor_name,0.98,枕流亭,,duplicate_existing_anchor,枕流亭,西樵镇
IH_0253,不可移动文物Excel.xls,不可移动文物,古文化遗址,矿冶遗址,全国重点文物保护单位,石燕岩采石遗址,"明代,清代",广东省佛山市南海区西樵镇东碧社区西樵山碧云村狮脑峰南麓石燕岩,西樵镇,point,112.935322,22.941121,town_representative_point,0.38,,,new_candidate,,西樵镇
IH_0254,不可移动文物Excel.xls,不可移动文物,古建筑,亭台楼阙（及其他景观建筑、戏曲演出建筑、天文观测建筑）,市级和县级文物保护单位,光分亭,清代,广东省佛山市南海区西樵镇樵园社区西樵山白云洞风景区,西樵镇,point,112.962325,22.933011,existing_anchor_name,0.98,光分亭,,duplicate_existing_anchor,光分亭,西樵镇
IH_0255,不可移动文物Excel.xls,不可移动文物,近现代重要史迹及代表性建筑,名人故、旧居,尚未核定公布为文物保护单位的不可移动文物,区芳浦旧居,近现代,广东省佛山市南海区狮山镇沙水村委会沙水村西北方,狮山镇,point,113.030542,23.122685,address_token_centroid,0.72,,狮山 (876 points),new_candidate,,狮山镇
IH_0256,不可移动文物Excel.xls,不可移动文物,古建筑,亭台楼阙（及其他景观建筑、戏曲演出建筑、天文观测建筑）,尚未核定公布为文物保护单位的不可移动文物,沙水文阁,清代,广东省佛山市南海区狮山镇沙水村委会沙水村东南方,狮山镇,point,113.030542,23.122685,address_token_centroid,0.72,,狮山 (876 points),new_candidate,,狮山镇
IH_0257,不可移动文物Excel.xls,不可移动文物,近现代重要史迹及代表性建筑,重大历史事件和重要机构旧址（及战争遗址、工业遗址等）,市级和县级文物保护单位,中共南海县委旧址,近现代,广东省佛山市南海区狮山镇显纲村委会显纲村中和里234号,狮山镇,point,113.100939,23.134657,poi_name_exact,0.94,,中共南海县委旧址,matched_poi_only,中共南海县委旧址,大沥镇
IH_0258,不可移动文物Excel.xls,不可移动文物,近现代重要史迹及代表性建筑,文化教育建筑及附属物,尚未核定公布为文物保护单位的不可移动文物,沙水小学礼堂旧址,近现代,广东省佛山市南海区狮山镇沙水村委会沙水村东南方,狮山镇,point,113.030542,23.122685,address_token_centroid,0.72,,狮山 (876 points),new_candidate,,狮山镇
IH_0259,不可移动文物Excel.xls,不可移动文物,古建筑,坛庙祠堂,尚未核定公布为文物保护单位的不可移动文物,南社袁氏大宗祠,"明代,清代",广东省佛山市南海区狮山镇塘联村委会南社村十二巷92号之一,狮山镇,point,113.030542,23.122685,address_token_centroid,0.72,,狮山 (876 points),new_candidate,,狮山镇
IH_0260,不可移动文物Excel.xls,不可移动文物,古建筑,坛庙祠堂,尚未核定公布为文物保护单位的不可移动文物,万石万氏大宗祠,清代,广东省佛山市南海区狮山镇万石村委会万石村村前路2号,狮山镇,point,113.080053,23.179928,poi_name_fuzzy,0.84,,万氏大宗祠,new_candidate,,狮山镇
IH_0261,不可移动文物Excel.xls,不可移动文物,古建筑,坛庙祠堂,尚未核定公布为文物保护单位的不可移动文物,洞边黄氏宗祠,清代,广东省佛山市南海区狮山镇洞边社区居委会新村村口,狮山镇,point,113.105668,23.206358,poi_name_fuzzy,0.84,,黄氏宗祠,new_candidate,,里水镇
IH_0262,不可移动文物Excel.xls,不可移动文物,古文化遗址,矿冶遗址,市级和县级文物保护单位,通窿岩采石遗址,"明代,清代",广东省佛山市南海区狮山镇石泉村委会南国桃园平顶岗通窿岩,狮山镇,point,113.030542,23.122685,address_token_centroid,0.72,,狮山 (876 points),new_candidate,,狮山镇
IH_0263,不可移动文物Excel.xls,不可移动文物,古墓葬,普通墓葬,尚未核定公布为文物保护单位的不可移动文物,狮南钟氏家族墓,宋辽西夏金元,广东省佛山市南海区狮山镇狮南村委会火烧岗,狮山镇,point,113.030542,23.122685,address_token_centroid,0.72,,狮山 (876 points),new_candidate,,狮山镇
IH_0264,不可移动文物Excel.xls,不可移动文物,近现代重要史迹及代表性建筑,典型风格建筑或者构筑物,尚未核定公布为文物保护单位的不可移动文物,大珠江村古登堡,近现代,广东省佛山市南海区狮山镇狮岭村委会大珠江村村北尾6号,狮山镇,point,113.030542,23.122685,address_token_centroid,0.72,,狮山 (876 points),new_candidate,,狮山镇
IH_0265,不可移动文物Excel.xls,不可移动文物,近现代重要史迹及代表性建筑,其他近现代代表性建筑,尚未核定公布为文物保护单位的不可移动文物,尚贤固园楼,近现代,广东省佛山市南海区狮山镇穆院社区居委会尚南村村口,狮山镇,point,113.012959,23.125704,poi_name_exact,0.94,,尚贤固园楼,matched_poi_only,尚贤固园楼,狮山镇
IH_0266,不可移动文物Excel.xls,不可移动文物,古建筑,坛庙祠堂,尚未核定公布为文物保护单位的不可移动文物,华木李氏大宗祠,清代,广东省佛山市南海区狮山镇五星社区居委会华木村23巷4号侧,狮山镇,point,113.015703,23.041153,poi_name_fuzzy,0.84,,李氏大宗祠,new_candidate,,狮山镇
IH_0267,不可移动文物Excel.xls,不可移动文物,古文化遗址,窑址,市级和县级文物保护单位,奇石窑址,"隋唐五代十国,宋辽西夏金元",广东省佛山市南海区狮山镇新境村委会奇石村、西门村,狮山镇,point,112.98084,23.053329,address_token_centroid,0.62,,西门村 (1 points),new_candidate,,狮山镇
IH_0268,不可移动文物Excel.xls,不可移动文物,古建筑,坛庙祠堂,尚未核定公布为文物保护单位的不可移动文物,诚意高公祠,清代,广东省佛山市南海区狮山镇狮西村委会洞东村村口,狮山镇,point,113.030542,23.122685,address_token_centroid,0.72,,狮山 (876 points),new_candidate,,狮山镇
IH_0269,不可移动文物Excel.xls,不可移动文物,近现代重要史迹及代表性建筑,其他近现代代表性建筑,市级和县级文物保护单位,义民纪念碑,近现代,广东省佛山市南海区狮山镇狮中村委会陈洞村旧村东南方,狮山镇,point,112.981778,23.165253,poi_name_fuzzy,0.84,,狮山镇义民纪念碑,new_candidate,,狮山镇
IH_0270,不可移动文物Excel.xls,不可移动文物,古建筑,坛庙祠堂,尚未核定公布为文物保护单位的不可移动文物,西竺玉虚宫,清代,广东省佛山市南海区狮山镇狮西村委会西竺村西边,狮山镇,point,113.030542,23.122685,address_token_centroid,0.72,,狮山 (876 points),new_candidate,,狮山镇
IH_0271,不可移动文物Excel.xls,不可移动文物,古建筑,桥涵码头,尚未核定公布为文物保护单位的不可移动文物,新溪桥,"明代,清代",广东省佛山市南海区狮山镇官窑社区居委会下新村新溪上,狮山镇,point,113.030542,23.122685,address_token_centroid,0.72,,狮山 (876 points),new_candidate,,狮山镇
IH_0272,不可移动文物Excel.xls,不可移动文物,近现代重要史迹及代表性建筑,重大历史事件和重要机构旧址（及战争遗址、工业遗址等）,市级和县级文物保护单位,珠江纵队独立第三大队队部旧址,近现代,广东省佛山市南海区狮山镇黄洞村委会东一区一号,狮山镇,point,112.983092,23.214013,poi_name_fuzzy,0.84,,文贵潘公祠-珠江纵队独立第三大队队部旧址,new_candidate,,狮山镇
IH_0273,不可移动文物Excel.xls,不可移动文物,古建筑,坛庙祠堂,市级和县级文物保护单位,华平李氏大宗祠,清代,广东省佛山市南海区狮山镇狮西村委会华平村,狮山镇,point,113.015703,23.041153,poi_name_fuzzy,0.84,,李氏大宗祠,new_candidate,,狮山镇
IH_0274,不可移动文物Excel.xls,不可移动文物,古墓葬,名人或贵族墓,市级和县级文物保护单位,张浚家族墓,宋辽西夏金元,广东省佛山市南海区狮山镇大榄社区居委会大榄林场大旗岭,狮山镇,point,113.030542,23.122685,address_token_centroid,0.72,,狮山 (876 points),new_candidate,,狮山镇
IH_0275,不可移动文物Excel.xls,不可移动文物,古建筑,坛庙祠堂,尚未核定公布为文物保护单位的不可移动文物,联表关氏西祠,清代,广东省佛山市南海区狮山镇联表社区居委会联表西村正街26号,狮山镇,point,113.095233,23.153195,poi_name_fuzzy,0.84,,关氏西祠,new_candidate,,狮山镇
IH_0276,不可移动文物Excel.xls,不可移动文物,古墓葬,名人或贵族墓,市级和县级文物保护单位,陈宁墓,宋辽西夏金元,广东省佛山市南海区狮山镇黎岗村委会豸下村梅花地,狮山镇,point,113.030542,23.122685,address_token_centroid,0.72,,狮山 (876 points),new_candidate,,狮山镇
IH_0277,不可移动文物Excel.xls,不可移动文物,古墓葬,名人或贵族墓,市级和县级文物保护单位,叶正简夫人墓,宋辽西夏金元,广东省佛山市南海区狮山镇黎岗村委会豸下村后山,狮山镇,point,113.030542,23.122685,address_token_centroid,0.72,,狮山 (876 points),new_candidate,,狮山镇
IH_0278,不可移动文物Excel.xls,不可移动文物,古建筑,桥涵码头,市级和县级文物保护单位,古岗桥,明代,广东省佛山市南海区狮山镇永安社区居委会古岗村,狮山镇,point,113.030542,23.122685,address_token_centroid,0.72,,狮山 (876 points),new_candidate,,狮山镇
IH_0279,不可移动文物Excel.xls,不可移动文物,古建筑,桥涵码头,市级和县级文物保护单位,福星桥,清代,广东省佛山市南海区狮山镇大榄社区居委会大榄涌上,狮山镇,point,113.030542,23.122685,address_token_centroid,0.72,,狮山 (876 points),new_candidate,,狮山镇
IH_0280,不可移动文物Excel.xls,不可移动文物,古建筑,坛庙祠堂,尚未核定公布为文物保护单位的不可移动文物,豁轩黄大夫祠,清代,广东省佛山市南海区狮山镇群岗社区居委会小江二村九--十巷间,狮山镇,point,113.084934,23.221937,poi_name_exact,0.94,,豁轩黄大夫祠,matched_poi_only,豁轩黄大夫祠,狮山镇
IH_0281,不可移动文物Excel.xls,不可移动文物,古建筑,坛庙祠堂,尚未核定公布为文物保护单位的不可移动文物,蔡边刘氏宗祠,"明代,清代",广东省佛山市南海区狮山镇象岭村委会蔡边村,狮山镇,point,113.105078,23.208956,poi_name_fuzzy,0.84,,刘氏宗祠,new_candidate,,里水镇
IH_0282,不可移动文物Excel.xls,不可移动文物,古建筑,坛庙祠堂,尚未核定公布为文物保护单位的不可移动文物,南浦钟氏大宗祠,清代,广东省佛山市南海区狮山镇南浦村委会北向村旧屋区东一巷1号,狮山镇,point,113.113536,23.097179,poi_name_fuzzy,0.84,,钟氏大宗祠,new_candidate,,大沥镇
IH_0283,不可移动文物Excel.xls,不可移动文物,近现代重要史迹及代表性建筑,名人故、旧居,市级和县级文物保护单位,黄少强故居,近现代,广东省佛山市南海区狮山镇群岗社区居委会小江二村九巷,狮山镇,point,113.090524,23.219449,poi_name_exact,0.94,,黄少强故居,matched_poi_only,黄少强故居,狮山镇
IH_0284,不可移动文物Excel.xls,不可移动文物,古建筑,坛庙祠堂,市级和县级文物保护单位,泗源郑公祠,清代,广东省佛山市南海区里水镇贤僚村委会西一村文明一街13号,里水镇,point,113.166267,23.263308,poi_name_exact,0.94,,泗源郑公祠,matched_poi_only,泗源郑公祠,里水镇
IH_0285,不可移动文物Excel.xls,不可移动文物,古建筑,池塘井泉,尚未核定公布为文物保护单位的不可移动文物,甘蕉南向水井,清代,广东省佛山市南海区里水镇甘蕉社区居委会南向街49号东侧,里水镇,point,113.138868,23.223757,town_representative_point,0.38,,,new_candidate,,里水镇
IH_0286,不可移动文物Excel.xls,不可移动文物,古建筑,坛庙祠堂,尚未核定公布为文物保护单位的不可移动文物,岑岗黄氏宗祠,清代,广东省佛山市南海区里水镇鹤峰村委会岑岗村北区一巷2号侧,里水镇,point,113.105668,23.206358,poi_name_fuzzy,0.84,,黄氏宗祠,new_candidate,,里水镇
IH_0287,不可移动文物Excel.xls,不可移动文物,古建筑,池塘井泉,尚未核定公布为文物保护单位的不可移动文物,展旗旧屋水井,清代,广东省佛山市南海区里水镇大冲社区居委会展旗村旧屋61号西南角,里水镇,point,113.138868,23.223757,town_representative_point,0.38,,,new_candidate,,里水镇
IH_0288,不可移动文物Excel.xls,不可移动文物,古建筑,池塘井泉,尚未核定公布为文物保护单位的不可移动文物,甘蕉东山水井,清代,广东省佛山市南海区里水镇甘蕉社区居委会东山街96号侧,里水镇,point,113.138868,23.223757,town_representative_point,0.38,,,new_candidate,,里水镇
IH_0289,不可移动文物Excel.xls,不可移动文物,古建筑,坛庙祠堂,尚未核定公布为文物保护单位的不可移动文物,养拙蒲公祠,清代,广东省佛山市南海区里水镇甘蕉社区居委会上街村甘蕉路47号,里水镇,point,113.137745,23.170399,poi_name_exact,0.94,,养拙蒲公祠,matched_poi_only,养拙蒲公祠,里水镇
IH_0290,不可移动文物Excel.xls,不可移动文物,古建筑,坛庙祠堂,尚未核定公布为文物保护单位的不可移动文物,联星吕氏宗祠,清代,广东省佛山市南海区里水镇大冲社区居委会联星村67号侧,里水镇,point,113.091267,23.234989,poi_name_fuzzy,0.84,,吕氏宗祠,new_candidate,,狮山镇
IH_0291,不可移动文物Excel.xls,不可移动文物,古建筑,坛庙祠堂,尚未核定公布为文物保护单位的不可移动文物,泰开梁公祠,清代,广东省佛山市南海区里水镇大冲社区居委会忠厚村东南方,里水镇,point,113.138868,23.223757,town_representative_point,0.38,,,new_candidate,,里水镇
IH_0292,不可移动文物Excel.xls,不可移动文物,古建筑,池塘井泉,尚未核定公布为文物保护单位的不可移动文物,展旗新屋水井,清代,广东省佛山市南海区里水镇大冲社区居委会展旗村新屋60号屋南侧,里水镇,point,113.138868,23.223757,town_representative_point,0.38,,,new_candidate,,里水镇
IH_0293,不可移动文物Excel.xls,不可移动文物,古建筑,坛庙祠堂,尚未核定公布为文物保护单位的不可移动文物,桧庵易公祠,清代,广东省佛山市南海区里水镇北沙村委会伴仙岗村大厅东六巷1号侧,里水镇,point,113.138868,23.223757,town_representative_point,0.38,,,new_candidate,,里水镇
IH_0294,不可移动文物Excel.xls,不可移动文物,古建筑,坛庙祠堂,尚未核定公布为文物保护单位的不可移动文物,旋溪吕公祠,清代,广东省佛山市南海区里水镇大冲社区居委会上村福庆巷1号,里水镇,point,113.123039,23.157303,poi_name_exact,0.94,,旋溪吕公祠,matched_poi_only,旋溪吕公祠,里水镇
IH_0295,不可移动文物Excel.xls,不可移动文物,古建筑,坛庙祠堂,尚未核定公布为文物保护单位的不可移动文物,和同杜氏宗祠,"明代,清代",广东省佛山市南海区里水镇甘蕉社区居委会和同村东山街4号侧,里水镇,point,113.123473,23.201347,poi_name_fuzzy,0.84,,杜氏宗祠,new_candidate,,里水镇
IH_0296,不可移动文物Excel.xls,不可移动文物,古建筑,坛庙祠堂,尚未核定公布为文物保护单位的不可移动文物,仁礼沈公祠,清代,广东省佛山市南海区里水镇北沙村委会沈村村沈壹8巷侧,里水镇,point,113.138868,23.223757,town_representative_point,0.38,,,new_candidate,,里水镇
IH_0297,不可移动文物Excel.xls,不可移动文物,近现代重要史迹及代表性建筑,重大历史事件和重要机构旧址（及战争遗址、工业遗址等）,市级和县级文物保护单位,中共南三花工委旧址,近现代,广东省佛山市南海区里水镇北沙村委会沈村村沈五五巷,里水镇,point,113.141342,23.191706,poi_name_exact,0.94,,中共南三花工委旧址,matched_poi_only,中共南三花工委旧址,里水镇
IH_0298,不可移动文物Excel.xls,不可移动文物,古建筑,坛庙祠堂,尚未核定公布为文物保护单位的不可移动文物,石一黄氏宗祠,清代,广东省佛山市南海区里水镇大石社区居委会石一村五巷21号左侧,里水镇,point,113.105668,23.206358,poi_name_fuzzy,0.84,,黄氏宗祠,new_candidate,,里水镇
IH_0299,不可移动文物Excel.xls,不可移动文物,古建筑,亭台楼阙（及其他景观建筑、戏曲演出建筑、天文观测建筑）,省级文物保护单位,北涌亭,明代,广东省佛山市南海区里水镇新联社区居委会沿江公园东,里水镇,point,113.161251,23.197642,poi_name_exact,0.94,,北涌亭,matched_poi_only,北涌亭,里水镇
IH_0300,不可移动文物Excel.xls,不可移动文物,古建筑,坛庙祠堂,尚未核定公布为文物保护单位的不可移动文物,水表陈氏宗祠,清代,广东省佛山市南海区里水镇大石社区居委会水表村一巷1号侧,里水镇,point,113.146747,23.131128,poi_name_fuzzy,0.84,,陈氏宗祠,new_candidate,,大沥镇
IH_0301,不可移动文物Excel.xls,不可移动文物,古建筑,池塘井泉,尚未核定公布为文物保护单位的不可移动文物,水口水井,"明代,清代",广东省佛山市南海区里水镇流潮社区居委会水口村姓苏18号前,里水镇,point,113.138868,23.223757,town_representative_point,0.38,,,new_candidate,,里水镇
IH_0302,不可移动文物Excel.xls,不可移动文物,近现代重要史迹及代表性建筑,医疗卫生建筑,尚未核定公布为文物保护单位的不可移动文物,草场宏济医局旧址,近现代,广东省佛山市南海区里水镇草场社区居委会草场村草场大街19号,里水镇,point,113.138868,23.223757,town_representative_point,0.38,,,new_candidate,,里水镇
IH_0303,不可移动文物Excel.xls,不可移动文物,古建筑,桥涵码头,市级和县级文物保护单位,大石桥,清代,广东省佛山市南海区里水镇洲村社区居委会里横路东侧,里水镇,point,113.138868,23.223757,town_representative_point,0.38,,,new_candidate,,里水镇
IH_0304,不可移动文物Excel.xls,不可移动文物,古建筑,坛庙祠堂,尚未核定公布为文物保护单位的不可移动文物,草场洪圣古庙,清代,广东省佛山市南海区里水镇草场社区居委会草场村草场大街20号,里水镇,point,113.014767,23.205924,poi_name_fuzzy,0.84,,洪圣古庙,new_candidate,,狮山镇
IH_0305,不可移动文物Excel.xls,不可移动文物,古建筑,坛庙祠堂,尚未核定公布为文物保护单位的不可移动文物,阳谷林公祠,清代,广东省佛山市南海区里水镇白岗社区居委会白岗村林氏大街一巷1号东侧,里水镇,point,113.138868,23.223757,town_representative_point,0.38,,,new_candidate,,里水镇
IH_0306,不可移动文物Excel.xls,不可移动文物,古建筑,坛庙祠堂,尚未核定公布为文物保护单位的不可移动文物,孔村至圣家庙,清代,广东省佛山市南海区里水镇共同社区居委会孔村,里水镇,point,113.090659,23.20803,address_token_centroid,0.72,,孔村 (3 points),new_candidate,,狮山镇
IH_0307,不可移动文物Excel.xls,不可移动文物,古建筑,坛庙祠堂,尚未核定公布为文物保护单位的不可移动文物,丰冈冯氏宗祠,清代,广东省佛山市南海区里水镇胜利社区居委会丰冈村盛平大道5号,里水镇,point,113.172623,23.193748,poi_name_fuzzy,0.84,,冯氏宗祠,new_candidate,,里水镇
IH_0308,不可移动文物Excel.xls,不可移动文物,古建筑,坛庙祠堂,尚未核定公布为文物保护单位的不可移动文物,介庵蔡公祠,"明代,清代",广东省佛山市南海区里水镇和顺社区居委会和南村,里水镇,point,113.138868,23.223757,town_representative_point,0.38,,,new_candidate,,里水镇
IH_0309,不可移动文物Excel.xls,不可移动文物,古建筑,坛庙祠堂,尚未核定公布为文物保护单位的不可移动文物,务智邹公祠,清代,广东省佛山市南海区里水镇逢涌村委会逢西村临街4号侧,里水镇,point,113.138868,23.223757,town_representative_point,0.38,,,new_candidate,,里水镇
IH_0310,不可移动文物Excel.xls,不可移动文物,古建筑,坛庙祠堂,尚未核定公布为文物保护单位的不可移动文物,和北李氏宗祠,清代,广东省佛山市南海区里水镇和顺社区居委会和北村大街5巷2号,里水镇,point,112.99534,23.19254,poi_name_fuzzy,0.84,,李氏宗祠,new_candidate,,狮山镇
IH_0311,不可移动文物Excel.xls,不可移动文物,古建筑,坛庙祠堂,尚未核定公布为文物保护单位的不可移动文物,真成周公祠,清代,广东省佛山市南海区里水镇石塘村委会上北一村大街九巷1号,里水镇,point,113.093316,23.277428,poi_name_exact,0.94,,真成周公祠,matched_poi_only,真成周公祠,里水镇
IH_0312,不可移动文物Excel.xls,不可移动文物,近现代重要史迹及代表性建筑,文化教育建筑及附属物,尚未核定公布为文物保护单位的不可移动文物,永胜河北书院,近现代,广东省佛山市南海区桂城街道夏北社区居委会永胜村永顺大街202号,桂城街道,point,113.166559,23.061517,poi_name_fuzzy,0.84,,河北书院,new_candidate,,桂城街道
IH_0313,不可移动文物Excel.xls,不可移动文物,古建筑,坛庙祠堂,尚未核定公布为文物保护单位的不可移动文物,逢涌邹氏宗祠,"明代,清代",广东省佛山市南海区里水镇逢涌村委会逢西村逢西街十六巷1号,里水镇,point,113.104241,23.136032,poi_name_fuzzy,0.84,,邹氏宗祠,new_candidate,,大沥镇
IH_0314,不可移动文物Excel.xls,不可移动文物,古建筑,池塘井泉,尚未核定公布为文物保护单位的不可移动文物,石塘水井,宋辽西夏金元,广东省佛山市南海区里水镇石塘村委会仲文周公祠前,里水镇,point,113.138868,23.223757,town_representative_point,0.38,,,new_candidate,,里水镇
IH_0315,不可移动文物Excel.xls,不可移动文物,古建筑,坛庙祠堂,尚未核定公布为文物保护单位的不可移动文物,文东汤氏宗祠,清代,广东省佛山市南海区里水镇建星村委会文东村大街七巷边,里水镇,point,113.169389,23.261816,poi_name_fuzzy,0.84,,汤氏宗祠,new_candidate,,里水镇
IH_0316,不可移动文物Excel.xls,不可移动文物,古文化遗址,寺庙遗址,尚未核定公布为文物保护单位的不可移动文物,和顺金山寺遗址,明代,广东省佛山市南海区里水镇瑶头村委会境内官窑水道中灵洲山上,里水镇,point,113.138868,23.223757,town_representative_point,0.38,,,new_candidate,,里水镇
IH_0317,不可移动文物Excel.xls,不可移动文物,近现代重要史迹及代表性建筑,医疗卫生建筑,市级和县级文物保护单位,树本善堂,近现代,广东省佛山市南海区狮山镇狮北村委会银岗圩大街2号,狮山镇,point,112.977066,23.176689,poi_name_exact,0.94,,树本善堂,matched_poi_only,树本善堂,狮山镇
IH_0318,不可移动文物Excel.xls,不可移动文物,古建筑,坛庙祠堂,尚未核定公布为文物保护单位的不可移动文物,黎西洪圣古庙,清代,广东省佛山市南海区狮山镇狮岭村委会黎边黎西村西南方,狮山镇,point,113.014767,23.205924,poi_name_fuzzy,0.84,,洪圣古庙,new_candidate,,狮山镇
IH_0319,不可移动文物Excel.xls,不可移动文物,古建筑,坛庙祠堂,尚未核定公布为文物保护单位的不可移动文物,凤岗邝氏宗祠,"明代,清代",广东省佛山市南海区狮山镇凤岗村委会邝村村,狮山镇,point,112.957102,23.206291,poi_name_fuzzy,0.84,,邝氏宗祠,new_candidate,,狮山镇
IH_0320,不可移动文物Excel.xls,不可移动文物,古建筑,坛庙祠堂,尚未核定公布为文物保护单位的不可移动文物,元庵杨公祠,明代,广东省佛山市南海区狮山镇罗村社区罗南村祠前路3号,狮山镇,point,113.030542,23.122685,address_token_centroid,0.72,,狮山 (876 points),new_candidate,,狮山镇
IH_0321,不可移动文物Excel.xls,不可移动文物,古建筑,坛庙祠堂,市级和县级文物保护单位,联星江氏宗祠,清代,广东省佛山市南海区狮山镇罗村联星社区居委会上三村吉祥巷1号北侧,狮山镇,point,113.086935,23.065586,poi_name_fuzzy,0.84,,江氏宗祠,new_candidate,,狮山镇
IH_0322,不可移动文物Excel.xls,不可移动文物,古建筑,坛庙祠堂,尚未核定公布为文物保护单位的不可移动文物,罗南杨氏四世祠,清代,广东省佛山市南海区狮山镇罗村社区罗南村祠前路5号,狮山镇,point,113.038231,23.056959,poi_name_fuzzy,0.84,,杨氏四世祠,new_candidate,,狮山镇
IH_0323,不可移动文物Excel.xls,不可移动文物,古墓葬,名人或贵族墓,市级和县级文物保护单位,伦文叙墓,明代,广东省佛山市南海区狮山镇罗村芦塘社区居委会长安墓园棋子岭西南麓,狮山镇,point,113.030542,23.122685,address_token_centroid,0.72,,狮山 (876 points),new_candidate,,狮山镇
IH_0324,不可移动文物Excel.xls,不可移动文物,古建筑,坛庙祠堂,尚未核定公布为文物保护单位的不可移动文物,下柏黄氏大宗祠,清代,广东省佛山市南海区狮山镇下柏社区居委会下柏村南面,狮山镇,point,113.021404,23.062956,poi_name_fuzzy,0.84,,黄氏大宗祠,new_candidate,,狮山镇
IH_0325,不可移动文物Excel.xls,不可移动文物,古建筑,坛庙祠堂,尚未核定公布为文物保护单位的不可移动文物,总排吴氏宗祠,"明代,清代",广东省佛山市南海区狮山镇罗村联和社区居委会总排村北街一巷7号,狮山镇,point,112.945955,23.090041,poi_name_fuzzy,0.84,,吴氏宗祠,new_candidate,,丹灶镇
IH_0326,不可移动文物Excel.xls,不可移动文物,古墓葬,名人或贵族墓,市级和县级文物保护单位,骆秉章墓,清代,广东省佛山市南海区狮山镇罗村芦塘社区居委会雅三村东面山岗,狮山镇,point,113.030542,23.122685,address_token_centroid,0.72,,狮山 (876 points),new_candidate,,狮山镇
IH_0327,不可移动文物Excel.xls,不可移动文物,古建筑,坛庙祠堂,尚未核定公布为文物保护单位的不可移动文物,大丰田列圣宫,清代,广东省佛山市南海区狮山镇罗村务庄社区居委会大丰田村,狮山镇,point,113.030542,23.122685,address_token_centroid,0.72,,狮山 (876 points),new_candidate,,狮山镇
IH_0328,不可移动文物Excel.xls,不可移动文物,近现代重要史迹及代表性建筑,其他近现代代表性建筑,尚未核定公布为文物保护单位的不可移动文物,下柏宏中楼墓园东塔,近现代,广东省佛山市南海区狮山镇下柏社区居委会下柏村西区山岗东南侧,狮山镇,point,113.030542,23.122685,address_token_centroid,0.72,,狮山 (876 points),new_candidate,,狮山镇
IH_0329,不可移动文物Excel.xls,不可移动文物,近现代重要史迹及代表性建筑,其他近现代代表性建筑,尚未核定公布为文物保护单位的不可移动文物,下柏宏中楼墓园西塔,近现代,广东省佛山市南海区狮山镇下柏社区居委会下柏村西区山岗西北侧,狮山镇,point,113.030542,23.122685,address_token_centroid,0.72,,狮山 (876 points),new_candidate,,狮山镇
IH_0330,不可移动文物Excel.xls,不可移动文物,古建筑,牌坊影壁,市级和县级文物保护单位,泮阳李公祠门楼,明代,广东省佛山市南海区狮山镇罗村社区寨边村村前街八巷1号,狮山镇,point,113.030542,23.122685,address_token_centroid,0.72,,狮山 (876 points),new_candidate,,狮山镇
IH_0331,不可移动文物Excel.xls,不可移动文物,古建筑,池塘井泉,尚未核定公布为文物保护单位的不可移动文物,丹灶无叶井,明代,广东省佛山市南海区丹灶镇丹灶社区居委会西村坊十一巷1号前,丹灶镇,point,112.92091,23.06365,town_representative_point,0.38,,,new_candidate,,丹灶镇
IH_0332,不可移动文物Excel.xls,不可移动文物,古建筑,池塘井泉,尚未核定公布为文物保护单位的不可移动文物,丹灶仙井名泉,明代,广东省佛山市南海区丹灶镇丹灶社区居委会仙井坊五巷7号前,丹灶镇,point,112.913254,23.044887,poi_name_exact,0.94,,仙井名泉,matched_poi_only,仙井名泉,丹灶镇
IH_0333,不可移动文物Excel.xls,不可移动文物,古建筑,学堂书院（及其他文化教育建筑）,尚未核定公布为文物保护单位的不可移动文物,丹灶佩瑶家塾,清代,广东省佛山市南海区丹灶镇丹灶社区居委会隔塘坊二巷,丹灶镇,point,112.913555,23.043809,poi_name_exact,0.94,,佩瑶家塾,matched_poi_only,佩瑶家塾,丹灶镇
IH_0334,不可移动文物Excel.xls,不可移动文物,近现代重要史迹及代表性建筑,名人故、旧居,全国重点文物保护单位,康有为故居,近现代,广东省佛山市南海区丹灶镇银河社区居委会苏村敦仁里,丹灶镇,point,112.905461,23.021024,existing_anchor_name,0.98,康有为故居,,duplicate_existing_anchor,康有为故居,丹灶镇
IH_0335,不可移动文物Excel.xls,不可移动文物,古建筑,池塘井泉,尚未核定公布为文物保护单位的不可移动文物,大涡张家水井,清代,广东省佛山市南海区丹灶镇大涡村委会大涡村张家大街高街巷5号右侧,丹灶镇,point,112.92091,23.06365,town_representative_point,0.38,,,new_candidate,,丹灶镇
IH_0336,不可移动文物Excel.xls,不可移动文物,古建筑,池塘井泉,尚未核定公布为文物保护单位的不可移动文物,洲南水井,明代,广东省佛山市南海区丹灶镇新农社区居委会洲南村大街五巷1—3号间,丹灶镇,point,112.92091,23.06365,town_representative_point,0.38,,,new_candidate,,丹灶镇
IH_0337,不可移动文物Excel.xls,不可移动文物,古建筑,坛庙祠堂,尚未核定公布为文物保护单位的不可移动文物,塘口黄氏大宗祠,清代,广东省佛山市南海区丹灶镇罗行社区居委会塘口村江夏祠道旁,丹灶镇,point,112.96424,23.030452,poi_name_exact,0.94,,塘口黄氏大宗祠,matched_poi_only,塘口黄氏大宗祠,丹灶镇
IH_0338,不可移动文物Excel.xls,不可移动文物,近现代重要史迹及代表性建筑,水利、农业相关建筑、设施及附属物（以及其他水利与农业遗产）,尚未核定公布为文物保护单位的不可移动文物,珠江水利局10号水准点标桩,近现代,广东省佛山市南海区丹灶镇下安村委会简家村华帝庙前,丹灶镇,point,112.92091,23.06365,town_representative_point,0.38,,,new_candidate,,丹灶镇
IH_0339,不可移动文物Excel.xls,不可移动文物,古建筑,坛庙祠堂,尚未核定公布为文物保护单位的不可移动文物,简家简氏大宗祠,清代,广东省佛山市南海区丹灶镇下安村委会简家村江夏祠道旁,丹灶镇,point,112.92091,23.06365,town_representative_point,0.38,,,new_candidate,,丹灶镇
IH_0340,不可移动文物Excel.xls,不可移动文物,近现代重要史迹及代表性建筑,其他近现代代表性建筑,尚未核定公布为文物保护单位的不可移动文物,淡浦陈公祠,近现代,广东省佛山市南海区丹灶镇良登村委会良登村村尾坊,丹灶镇,point,112.92091,23.06365,town_representative_point,0.38,,,new_candidate,,丹灶镇
IH_0341,不可移动文物Excel.xls,不可移动文物,古建筑,坛庙祠堂,尚未核定公布为文物保护单位的不可移动文物,北李李氏宗祠,清代,广东省佛山市南海区丹灶镇上安社区居委会北李村村前街十二巷1号,丹灶镇,point,112.99534,23.19254,poi_name_fuzzy,0.84,,李氏宗祠,new_candidate,,狮山镇
IH_0342,不可移动文物Excel.xls,不可移动文物,古建筑,坛庙祠堂,尚未核定公布为文物保护单位的不可移动文物,仙岗俭堂大夫祠,清代,广东省佛山市南海区丹灶镇仙岗社区居委会仙岗村低井坊四巷1号,丹灶镇,point,112.92091,23.06365,town_representative_point,0.38,,,new_candidate,,丹灶镇
IH_0343,不可移动文物Excel.xls,不可移动文物,古建筑,坛庙祠堂,市级和县级文物保护单位,东联吴氏大宗祠,清代,广东省佛山市南海区丹灶镇东联社区居委会水口村村前街西二十巷1号侧,丹灶镇,point,112.945996,23.089986,existing_anchor_name,0.98,东联吴氏大宗祠,,duplicate_existing_anchor,东联吴氏大宗祠,丹灶镇
IH_0344,不可移动文物Excel.xls,不可移动文物,古建筑,坛庙祠堂,尚未核定公布为文物保护单位的不可移动文物,仙岗陈氏大宗祠,清代,广东省佛山市南海区丹灶镇仙岗社区居委会仙岗村旧幼儿园旁,丹灶镇,point,113.196227,23.190165,poi_name_fuzzy,0.84,,陈氏大宗祠,new_candidate,,里水镇
IH_0345,不可移动文物Excel.xls,不可移动文物,古墓葬,名人或贵族墓,市级和县级文物保护单位,方道隆墓,宋辽西夏金元,广东省佛山市南海区丹灶镇良登村委会孔边村孔边岗,丹灶镇,point,112.921503,23.025526,existing_anchor_name,0.98,方道隆墓,,duplicate_existing_anchor,方道隆墓,丹灶镇
IH_0346,不可移动文物Excel.xls,不可移动文物,古建筑,牌坊影壁,市级和县级文物保护单位,贞烈牌坊,清代,广东省佛山市南海区丹灶镇仙岗社区居委会苏坑村村口,丹灶镇,point,112.883872,23.04674,existing_anchor_name,0.98,贞烈牌坊,,duplicate_existing_anchor,贞烈牌坊,丹灶镇
IH_0347,不可移动文物Excel.xls,不可移动文物,古建筑,坛庙祠堂,市级和县级文物保护单位,南沙陈氏宗祠,清代,广东省佛山市南海区丹灶镇南沙社区居委会新村街十二巷1号,丹灶镇,point,112.905606,23.131102,existing_anchor_name,0.98,南沙陈氏宗祠,,duplicate_existing_anchor,南沙陈氏宗祠,丹灶镇
IH_0348,不可移动文物Excel.xls,不可移动文物,古建筑,牌坊影壁,省级文物保护单位,旌表节孝牌坊,清代,广东省佛山市南海区九江镇烟南村委会烟桥村新庄南部,九江镇,point,112.959097,22.865251,town_representative_point,0.38,,,new_candidate,,九江镇
IH_0349,不可移动文物Excel.xls,不可移动文物,古建筑,坛庙祠堂,省级文物保护单位,烟桥何氏大宗祠,清代,广东省佛山市南海区九江镇烟南村委会烟桥村西边,九江镇,point,112.959574,22.872088,existing_anchor_name,0.98,烟桥何氏大宗祠,,duplicate_existing_anchor,烟桥何氏大宗祠,西樵镇
IH_0350,不可移动文物Excel.xls,不可移动文物,古建筑,坛庙祠堂,尚未核定公布为文物保护单位的不可移动文物,文冲潘氏宗祠,"明代,清代",广东省佛山市南海区狮山镇沙头社区居委会文冲村南面,狮山镇,point,113.17906,23.080363,poi_name_fuzzy,0.84,,潘氏宗祠,new_candidate,,未标注
IH_0351,不可移动文物Excel.xls,不可移动文物,古文化遗址,窑址,尚未核定公布为文物保护单位的不可移动文物,大果窑址,夏商周（含春秋）,广东省佛山市南海区丹灶镇西城社区居委会大果村樵北涌东北约205米山岗西北麓,丹灶镇,point,112.895892,23.033964,address_token_centroid,0.62,,西城社区大果村 (1 points),new_candidate,,丹灶镇
IH_0352,不可移动文物Excel.xls,不可移动文物,古建筑,城垣城楼（及其他军事建筑及设施）,尚未核定公布为文物保护单位的不可移动文物,敦根乡门楼,清代,广东省佛山市南海区九江镇敦根社区居委会敦根村村口,九江镇,point,112.959097,22.865251,town_representative_point,0.38,,,new_candidate,,九江镇
IH_0353,不可移动文物Excel.xls,不可移动文物,古建筑,坛庙祠堂,尚未核定公布为文物保护单位的不可移动文物,法全潘公祠,清代,广东省佛山市南海区狮山镇沙头社区居委会下沙村,狮山镇,point,113.030542,23.122685,address_token_centroid,0.72,,狮山 (876 points),new_candidate,,狮山镇
IH_0354,不可移动文物Excel.xls,不可移动文物,古墓葬,名人或贵族墓,市级和县级文物保护单位,蔡道可、蔡子华墓,宋辽西夏金元,广东省佛山市南海区里水镇逢涌村委会文头岭西麓,里水镇,point,113.138868,23.223757,town_representative_point,0.38,,,new_candidate,,里水镇
IH_0355,不可移动文物Excel.xls,不可移动文物,古建筑,寺观塔阁（及其他宗教建筑）,市级和县级文物保护单位,魁星塔,清代,广东省佛山市南海区九江镇下北社区居委会铁滘村东南方,九江镇,point,113.023983,22.841656,existing_anchor_name,0.98,魁星塔,,duplicate_existing_anchor,魁星塔,九江镇
IH_0356,不可移动文物Excel.xls,不可移动文物,古建筑,牌坊影壁,省级文物保护单位,慈悲宫牌坊,明代,广东省佛山市南海区九江镇下西社区居委会翘南村新龙路探花公园北侧。,九江镇,point,113.003815,22.845895,existing_anchor_name,0.98,慈悲宫牌坊,,duplicate_existing_anchor,慈悲宫牌坊,九江镇
IH_0357,不可移动文物Excel.xls,不可移动文物,古建筑,桥涵码头,市级和县级文物保护单位,探花桥,"明代,清代",广东省佛山市南海区九江镇下西社区居委会翘南村新龙路探花公园北侧,九江镇,point,113.0,22.85,existing_anchor_name,0.98,探花桥,,duplicate_existing_anchor,探花桥,九江镇
IH_0358,不可移动文物Excel.xls,不可移动文物,古墓葬,名人或贵族墓,市级和县级文物保护单位,朱子襄墓,清代,广东省佛山市南海区九江镇下西社区居委会太平村龟岗西南麓,九江镇,point,113.005299,22.836108,existing_anchor_name,0.98,朱子襄墓,,duplicate_existing_anchor,朱子襄墓,九江镇
IH_0359,不可移动文物Excel.xls,不可移动文物,古建筑,牌坊影壁,省级文物保护单位,良二千石牌坊,明代,广东省佛山市南海区九江镇下西社区居委会大稔村北边,九江镇,point,113.003731,22.837996,existing_anchor_name,0.98,良二千石牌坊,,duplicate_existing_anchor,良二千石牌坊,九江镇
IH_0360,不可移动文物Excel.xls,不可移动文物,石窟寺及石刻,石雕,尚未核定公布为文物保护单位的不可移动文物,水南石狮,明代,广东省佛山市南海区九江镇水南社区居委会龙鹤村狮子巷口,九江镇,point,112.959097,22.865251,town_representative_point,0.38,,,new_candidate,,九江镇
IH_0361,不可移动文物Excel.xls,不可移动文物,古建筑,寺观塔阁（及其他宗教建筑）,尚未核定公布为文物保护单位的不可移动文物,水南圣母殿,清代,广东省佛山市南海区九江镇水南社区居委会龙鹤村路2号旁,九江镇,point,112.959097,22.865251,town_representative_point,0.38,,,new_candidate,,九江镇
IH_0362,不可移动文物Excel.xls,不可移动文物,古墓葬,普通墓葬,尚未核定公布为文物保护单位的不可移动文物,水南何氏墓,宋辽西夏金元,广东省佛山市南海区九江镇水南社区居委会清叟村兴仁巷11号侧,九江镇,point,112.959097,22.865251,town_representative_point,0.38,,,new_candidate,,九江镇
IH_0363,不可移动文物Excel.xls,不可移动文物,近现代重要史迹及代表性建筑,典型风格建筑或者构筑物,尚未核定公布为文物保护单位的不可移动文物,中北民居,近现代,广东省佛山市南海区九江镇下东村委会中北村535号,九江镇,point,112.959097,22.865251,town_representative_point,0.38,,,new_candidate,,九江镇
IH_0364,不可移动文物Excel.xls,不可移动文物,近现代重要史迹及代表性建筑,传统民居,尚未核定公布为文物保护单位的不可移动文物,中西郑家东大院,近现代,广东省佛山市南海区九江镇下东村委会中西村487号,九江镇,point,112.959097,22.865251,town_representative_point,0.38,,,new_candidate,,九江镇
IH_0365,不可移动文物Excel.xls,不可移动文物,近现代重要史迹及代表性建筑,典型风格建筑或者构筑物,市级和县级文物保护单位,上东岑局楼,近现代,广东省佛山市南海区九江镇上东社区居委会上东沙村红旗421-422号,九江镇,point,113.03,22.83,existing_anchor_name,0.98,上东岑局楼,,duplicate_existing_anchor,上东岑局楼,九江镇
IH_0366,不可移动文物Excel.xls,不可移动文物,近现代重要史迹及代表性建筑,医疗卫生建筑,尚未核定公布为文物保护单位的不可移动文物,大谷冯联卿医所,近现代,广东省佛山市南海区九江镇大谷社区居委会南约村南约三巷三号,九江镇,point,112.959097,22.865251,town_representative_point,0.38,,,new_candidate,,九江镇
IH_0367,不可移动文物Excel.xls,不可移动文物,近现代重要史迹及代表性建筑,其他近现代代表性建筑,尚未核定公布为文物保护单位的不可移动文物,世老拱卫天枢门楼,近现代,广东省佛山市南海区九江镇朗星社区居委会世老村新一巷一号侧,九江镇,point,112.959097,22.865251,town_representative_point,0.38,,,new_candidate,,九江镇
IH_0368,不可移动文物Excel.xls,不可移动文物,古墓葬,普通墓葬,尚未核定公布为文物保护单位的不可移动文物,水南谭镇源家族墓,"宋辽西夏金元,明代",广东省佛山市南海区九江镇水南社区居委会沙涌村南边山坡,九江镇,point,112.959097,22.865251,town_representative_point,0.38,,,new_candidate,,九江镇
IH_0369,不可移动文物Excel.xls,不可移动文物,古墓葬,帝王陵寝,尚未核定公布为文物保护单位的不可移动文物,南方岑氏家族墓,"宋辽西夏金元,明代",广东省佛山市南海区九江镇南方社区居委会上南村344号侧宝鸭山上,九江镇,point,112.959097,22.865251,town_representative_point,0.38,,,new_candidate,,九江镇
IH_0370,不可移动文物Excel.xls,不可移动文物,近现代重要史迹及代表性建筑,典型风格建筑或者构筑物,尚未核定公布为文物保护单位的不可移动文物,太平振发楼,近现代,广东省佛山市南海区九江镇太平社区沙基横巷14号,九江镇,point,112.959097,22.865251,town_representative_point,0.38,,,new_candidate,,九江镇
IH_0371,不可移动文物Excel.xls,不可移动文物,古建筑,坛庙祠堂,尚未核定公布为文物保护单位的不可移动文物,西山关氏祖祠,清代,广东省佛山市南海区九江镇上西村委会西山村西北边,九江镇,point,112.987766,22.839409,poi_name_fuzzy,0.84,,关氏祖祠,new_candidate,,九江镇
IH_0372,不可移动文物Excel.xls,不可移动文物,古建筑,堤坝渠堰（及其他水利设施）,尚未核定公布为文物保护单位的不可移动文物,新龙龙涌窦,清代,广东省佛山市南海区九江镇新龙村委会龙涌村龙涌街35号侧,九江镇,point,112.959097,22.865251,town_representative_point,0.38,,,new_candidate,,九江镇
IH_0373,不可移动文物Excel.xls,不可移动文物,古建筑,堤坝渠堰（及其他水利设施）,市级和县级文物保护单位,下北石塘闸,清代,广东省佛山市南海区九江镇下北社区居委会石塘村,九江镇,point,112.959097,22.865251,town_representative_point,0.38,,,new_candidate,,九江镇
IH_0374,不可移动文物Excel.xls,不可移动文物,古墓葬,名人或贵族墓,省级文物保护单位,叶正简墓,宋辽西夏金元,广东省佛山市南海区狮山镇颜峰社区居委会人和村葫芦岗,狮山镇,point,113.076651,23.137093,poi_name_exact,0.94,,叶正简墓,matched_poi_only,叶正简墓,狮山镇
IH_0375,不可移动文物Excel.xls,不可移动文物,近现代重要史迹及代表性建筑,典型风格建筑或者构筑物,尚未核定公布为文物保护单位的不可移动文物,万寿养志园,近现代,广东省佛山市南海区九江镇下西社区居委会万寿村377号,九江镇,point,112.959097,22.865251,town_representative_point,0.38,,,new_candidate,,九江镇
IH_0376,不可移动文物Excel.xls,不可移动文物,古建筑,城垣城楼（及其他军事建筑及设施）,尚未核定公布为文物保护单位的不可移动文物,儒溪镇顶炮楼,清代,广东省佛山市南海区西樵镇儒溪村委会立新村十一巷11号前,西樵镇,point,112.935322,22.941121,town_representative_point,0.38,,,new_candidate,,西樵镇
IH_0377,不可移动文物Excel.xls,不可移动文物,古建筑,坛庙祠堂,尚未核定公布为文物保护单位的不可移动文物,罗田黎氏宗祠,清代,广东省佛山市南海区大沥镇奇槎社区居委会罗南村黎家街五巷1号,大沥镇,point,113.169065,23.049273,poi_name_fuzzy,0.84,,黎氏宗祠,new_candidate,,桂城街道
IH_0378,不可移动文物Excel.xls,不可移动文物,古建筑,坛庙祠堂,尚未核定公布为文物保护单位的不可移动文物,点头湛河公祠,清代,广东省佛山市南海区大沥镇大镇社区居委会点头村南十六巷2号,大沥镇,point,113.108739,23.081781,poi_name_fuzzy,0.84,,湛河公祠,new_candidate,,大沥镇
IH_0379,不可移动文物Excel.xls,不可移动文物,古文化遗址,窑址,市级和县级文物保护单位,文头岭窑址,"隋唐五代十国,宋辽西夏金元",广东省佛山市南海区里水镇逢涌村委会文头岭南麓,里水镇,point,113.138868,23.223757,town_representative_point,0.38,,,new_candidate,,里水镇
IH_0380,不可移动文物Excel.xls,不可移动文物,古建筑,坛庙祠堂,省级文物保护单位,曹氏大宗祠,"明代,清代",广东省佛山市南海区大沥镇曹边社区居委会滘北村一巷6号,大沥镇,point,113.107065,23.11553,poi_name_exact,0.94,,曹氏大宗祠,matched_poi_only,曹氏大宗祠,大沥镇
IH_0381,不可移动文物Excel.xls,不可移动文物,古文化遗址,祭祀遗址,市级和县级文物保护单位,破排角遗址,宋辽西夏金元,广东省佛山市南海区九江镇沙口社区文昌路沙口社区卫生站对面,九江镇,point,113.037232,22.814643,existing_anchor_name,0.98,破排角遗址,,duplicate_existing_anchor,破排角遗址,九江镇
IH_0382,不可移动文物Excel.xls,不可移动文物,古建筑,坛庙祠堂,市级和县级文物保护单位,禄舟万寿堂,清代,广东省佛山市南海区西樵镇岭西村委会禄舟村2O号,西樵镇,point,112.948687,22.922072,existing_anchor_name,0.98,禄舟万寿堂,,duplicate_existing_anchor,禄舟万寿堂,西樵镇
IH_0383,不可移动文物Excel.xls,不可移动文物,古建筑,坛庙祠堂,省级文物保护单位,平地黄氏大宗祠,清代,广东省佛山市南海区大沥镇平地社区居委会平地村新市大街三号,大沥镇,point,113.021404,23.062956,poi_name_fuzzy,0.84,,黄氏大宗祠,new_candidate,,狮山镇
IH_0384,不可移动文物Excel.xls,不可移动文物,古建筑,坛庙祠堂,尚未核定公布为文物保护单位的不可移动文物,莘村梁氏宗祠,清代,广东省佛山市南海区西樵镇联新社区居委会莘村村安定东十街街口,西樵镇,point,113.125926,23.13648,poi_name_fuzzy,0.84,,梁氏宗祠,new_candidate,,大沥镇
IH_0385,不可移动文物Excel.xls,不可移动文物,古墓葬,普通墓葬,市级和县级文物保护单位,邝氏始祖墓,宋辽西夏金元,广东省佛山市南海区大沥镇大镇社区居委会四中村北侧,大沥镇,point,113.145463,23.118352,town_representative_point,0.38,,,new_candidate,,大沥镇
IH_0386,不可移动文物Excel.xls,不可移动文物,古建筑,坛庙祠堂,市级和县级文物保护单位,朝议世家邝公祠,"明代,清代",广东省佛山市南海区大沥镇大镇社区居委会四中村,大沥镇,point,113.145463,23.118352,town_representative_point,0.38,,,new_candidate,,大沥镇
IH_0387,不可移动文物Excel.xls,不可移动文物,古建筑,坛庙祠堂,尚未核定公布为文物保护单位的不可移动文物,沙泥大夫家庙,清代,广东省佛山市南海区大沥镇钟边社区居委会沙泥村东北边,大沥镇,point,113.100348,23.101866,poi_name_fuzzy,0.84,,大夫家庙,new_candidate,,大沥镇
IH_0388,不可移动文物Excel.xls,不可移动文物,古建筑,坛庙祠堂,省级文物保护单位,钟氏大宗祠,清代,广东省佛山市南海区大沥镇钟边社区居委会钟边村钟边大道11号侧,大沥镇,point,113.113536,23.097179,poi_name_exact,0.94,,钟氏大宗祠,matched_poi_only,钟氏大宗祠,大沥镇
IH_0389,不可移动文物Excel.xls,不可移动文物,古建筑,城垣城楼（及其他军事建筑及设施）,尚未核定公布为文物保护单位的不可移动文物,铁村门楼,清代,广东省佛山市南海区大沥镇钟边社区居委会铁村村南村口,大沥镇,point,113.111292,23.103047,address_token_centroid,0.72,,铁村 (9 points),new_candidate,,大沥镇
IH_0390,不可移动文物Excel.xls,不可移动文物,古建筑,桥涵码头,尚未核定公布为文物保护单位的不可移动文物,麦边平地大桥,明代,广东省佛山市南海区大沥镇平地社区居委会麦边村桥头涌上,大沥镇,point,113.145463,23.118352,town_representative_point,0.38,,,new_candidate,,大沥镇
IH_0391,不可移动文物Excel.xls,不可移动文物,近现代重要史迹及代表性建筑,其他近现代代表性建筑,市级和县级文物保护单位,大沥革命烈士纪念碑,近现代,广东省佛山市南海区大沥镇沥苑社区沥园路大沥文化公园内,大沥镇,point,113.122997,23.111783,poi_name_exact,0.94,,大沥革命烈士纪念碑,matched_poi_only,大沥革命烈士纪念碑,大沥镇
IH_0392,不可移动文物Excel.xls,不可移动文物,古建筑,学堂书院（及其他文化教育建筑）,市级和县级文物保护单位,荔庄泰岭书舍,清代,广东省佛山市南海区大沥镇沥东社区居委会荔庄村东区二巷1号,大沥镇,point,113.145463,23.118352,town_representative_point,0.38,,,new_candidate,,大沥镇
IH_0393,不可移动文物Excel.xls,不可移动文物,古建筑,坛庙祠堂,市级和县级文物保护单位,松塘区氏宗祠,清代,广东省佛山市南海区西樵镇上金瓯社区居委会松塘村桂香坊,西樵镇,point,112.912902,22.986593,existing_anchor_name,0.98,松塘区氏宗祠,,duplicate_existing_anchor,松塘区氏宗祠,西樵镇
IH_0394,不可移动文物Excel.xls,不可移动文物,古建筑,宅第民居,市级和县级文物保护单位,松塘太史第,清代,广东省佛山市南海区西樵镇上金瓯社区居委会松塘村华宁坊59号侧,西樵镇,point,112.912236,22.985299,existing_anchor_name,0.98,松塘太史第,,duplicate_existing_anchor,松塘太史第,西樵镇
IH_0395,不可移动文物Excel.xls,不可移动文物,古建筑,坛庙祠堂,市级和县级文物保护单位,凤池曹氏大宗祠,清代,广东省佛山市南海区大沥镇凤池社区居委会凤西村凤西公园旁,大沥镇,point,113.107065,23.11553,poi_name_fuzzy,0.84,,曹氏大宗祠,new_candidate,,大沥镇
IH_0396,不可移动文物Excel.xls,不可移动文物,古建筑,坛庙祠堂,市级和县级文物保护单位,荔庄村吴氏祖祠,清代,广东省佛山市南海区大沥镇沥东社区居委会荔庄村东区一巷1号,大沥镇,point,113.145463,23.118352,town_representative_point,0.38,,,new_candidate,,大沥镇
IH_0397,不可移动文物Excel.xls,不可移动文物,古建筑,宅第民居,市级和县级文物保护单位,松塘翘秀园,清代,广东省佛山市南海区西樵镇上金瓯社区居委会松塘村华宁坊1号,西樵镇,point,112.910982,22.985446,existing_anchor_name,0.98,松塘翘秀园,,duplicate_existing_anchor,松塘翘秀园,西樵镇
IH_0398,不可移动文物Excel.xls,不可移动文物,古建筑,坛庙祠堂,市级和县级文物保护单位,松塘见五大夫祠,清代,广东省佛山市南海区西樵镇上金瓯社区居委会松塘村桂香坊,西樵镇,point,112.913098,22.98617,existing_anchor_name,0.98,松塘见五大夫祠,,duplicate_existing_anchor,松塘见五大夫祠,西樵镇
IH_0399,不可移动文物Excel.xls,不可移动文物,古建筑,坛庙祠堂,市级和县级文物保护单位,松塘六世祖祠,清代,广东省佛山市南海区西樵镇上金瓯社区居委会松塘村桂香坊,西樵镇,point,112.912902,22.986592,existing_anchor_name,0.98,松塘六世祖祠,,duplicate_existing_anchor,松塘六世祖祠,西樵镇
IH_0400,不可移动文物Excel.xls,不可移动文物,古建筑,宅第民居,市级和县级文物保护单位,松塘司马第,清代,广东省佛山市南海区西樵镇上金瓯社区居委会松塘村桂香坊126号,西樵镇,point,112.912902,22.986594,existing_anchor_name,0.98,松塘司马第,,duplicate_existing_anchor,松塘司马第,西樵镇
IH_0401,不可移动文物Excel.xls,不可移动文物,古建筑,坛庙祠堂,市级和县级文物保护单位,松塘塘西六世祖祠,清代,广东省佛山市南海区西樵镇上金瓯社区居委会松塘村塘西坊61号侧,西樵镇,point,112.909578,22.986672,existing_anchor_name,0.98,松塘塘西六世祖祠,,duplicate_existing_anchor,松塘塘西六世祖祠,西樵镇
IH_0402,不可移动文物Excel.xls,不可移动文物,古建筑,学堂书院（及其他文化教育建筑）,市级和县级文物保护单位,松塘培元书舍,清代,广东省佛山市南海区西樵镇上金瓯社区居委会松塘村忠心坊4号B侧,西樵镇,point,112.910275,22.985121,existing_anchor_name,0.98,松塘培元书舍,,duplicate_existing_anchor,松塘培元书舍,西樵镇
IH_0403,不可移动文物Excel.xls,不可移动文物,古建筑,坛庙祠堂,市级和县级文物保护单位,松塘世大夫家庙,清代,广东省佛山市南海区西樵镇上金瓯社区居委会松塘村文昌圩22号侧,西樵镇,point,112.907173,22.992616,existing_anchor_name,0.98,松塘世大夫家庙,,duplicate_existing_anchor,松塘世大夫家庙,西樵镇
IH_0404,不可移动文物Excel.xls,不可移动文物,古建筑,坛庙祠堂,市级和县级文物保护单位,松塘东山祖祠,清代,广东省佛山市南海区西樵镇上金瓯社区居委会松塘村文昌圩22号侧,西樵镇,point,112.907173,22.992617,existing_anchor_name,0.98,松塘东山祖祠,,duplicate_existing_anchor,松塘东山祖祠,西樵镇
IH_0405,不可移动文物Excel.xls,不可移动文物,古建筑,学堂书院（及其他文化教育建筑）,市级和县级文物保护单位,松塘汇川家塾,清代,广东省佛山市南海区西樵镇上金瓯社区居委会松塘村桂香坊13号,西樵镇,point,112.913162,22.986077,existing_anchor_name,0.98,松塘汇川家塾,,duplicate_existing_anchor,松塘汇川家塾,西樵镇
IH_0406,不可移动文物Excel.xls,不可移动文物,近现代重要史迹及代表性建筑,名人故、旧居,市级和县级文物保护单位,区梦觉故居,近现代,广东省佛山市南海区西樵镇上金瓯社区居委会松塘村华宁坊69号,西樵镇,point,112.912594,22.985217,existing_anchor_name,0.98,区梦觉故居,,duplicate_existing_anchor,区梦觉故居,西樵镇
IH_0407,不可移动文物Excel.xls,不可移动文物,古建筑,亭台楼阙（及其他景观建筑、戏曲演出建筑、天文观测建筑）,尚未核定公布为文物保护单位的不可移动文物,南乡百岁坊门楼,清代,广东省佛山市南海区西樵镇上金瓯社区居委会南乡村旧街30号前,西樵镇,point,112.910067,22.986684,address_token_centroid,0.72,,西樵镇上金瓯社区 (2 points),new_candidate,,西樵镇
IH_0408,不可移动文物Excel.xls,不可移动文物,古建筑,牌坊影壁,尚未核定公布为文物保护单位的不可移动文物,海边旌表节孝牌坊,清代,广东省佛山市南海区西樵镇民乐社区居委会海边村三街1号前,西樵镇,point,112.935322,22.941121,town_representative_point,0.38,,,new_candidate,,西樵镇
IH_0409,不可移动文物Excel.xls,不可移动文物,近现代重要史迹及代表性建筑,典型风格建筑或者构筑物,省级文物保护单位,九江吴家大院,近现代,广东省佛山市南海区九江镇儒林社区人民路九曲涌旁,九江镇,point,113.017758,22.833102,existing_anchor_name,0.98,九江吴家大院,,duplicate_existing_anchor,九江吴家大院,九江镇
IH_0410,不可移动文物Excel.xls,不可移动文物,古建筑,坛庙祠堂,尚未核定公布为文物保护单位的不可移动文物,阙里旧家,清代,广东省佛山市南海区狮山镇石碣社区居委会麟玉村东北方,狮山镇,point,113.087995,23.156443,poi_name_exact,0.94,,阙里旧家,matched_poi_only,阙里旧家,狮山镇
IH_0411,不可移动文物Excel.xls,不可移动文物,近现代重要史迹及代表性建筑,其他近现代代表性建筑,尚未核定公布为文物保护单位的不可移动文物,翘南五约队育蚕室旧址,近现代,广东省佛山市南海区九江镇下西社区居委会翘南村427号,九江镇,point,112.959097,22.865251,town_representative_point,0.38,,,new_candidate,,九江镇
IH_0412,不可移动文物Excel.xls,不可移动文物,古建筑,亭台楼阙（及其他景观建筑、戏曲演出建筑、天文观测建筑）,尚未核定公布为文物保护单位的不可移动文物,烟桥正道门楼,清代,广东省佛山市南海区九江镇烟南村委会烟桥村大巷6号,九江镇,point,112.959097,22.865251,town_representative_point,0.38,,,new_candidate,,九江镇
IH_0413,不可移动文物Excel.xls,不可移动文物,古建筑,坛庙祠堂,省级文物保护单位,崔氏大宗祠,明代,广东省佛山市南海区九江镇沙头社区民康路3号对面,九江镇,point,113.029806,22.91457,existing_anchor_name,0.98,崔氏大宗祠,,duplicate_existing_anchor,崔氏大宗祠,九江镇
IH_0414,不可移动文物Excel.xls,不可移动文物,近现代重要史迹及代表性建筑,医疗卫生建筑,尚未核定公布为文物保护单位的不可移动文物,万安善院,近现代,广东省佛山市南海区九江镇沙头社区万安路21号,九江镇,point,112.959097,22.865251,town_representative_point,0.38,,,new_candidate,,九江镇
IH_0415,不可移动文物Excel.xls,不可移动文物,古建筑,牌坊影壁,尚未核定公布为文物保护单位的不可移动文物,西桥文明牌坊,清代,广东省佛山市南海区九江镇西桥社区居委会西桥村北街书院巷1号侧,九江镇,point,112.959097,22.865251,town_representative_point,0.38,,,new_candidate,,九江镇
IH_0416,不可移动文物Excel.xls,不可移动文物,古建筑,堤坝渠堰（及其他水利设施）,省级文物保护单位,吉水窦,清代,广东省佛山市南海区西樵镇西樵社区居委会吉水大道牌坊前,西樵镇,point,112.96847,22.942825,existing_anchor_name,0.98,吉水窦,,duplicate_existing_anchor,吉水窦,西樵镇
IH_0417,不可移动文物Excel.xls,不可移动文物,近现代重要史迹及代表性建筑,典型风格建筑或者构筑物,市级和县级文物保护单位,傅氏山庄南门,近现代,广东省佛山市南海区西樵镇东碧社区西樵山碧云村,西樵镇,point,112.98177,22.924819,existing_anchor_name,0.98,傅氏山庄南门,,duplicate_existing_anchor,傅氏山庄南门,西樵镇
IH_0418,不可移动文物Excel.xls,不可移动文物,近现代重要史迹及代表性建筑,其他近现代代表性建筑,市级和县级文物保护单位,敦义崇礼碉楼,近现代,广东省佛山市南海区西樵镇东碧社区西樵山碧云村55号侧,西樵镇,point,112.981371,22.928312,existing_anchor_name,0.98,敦义崇礼碉楼,,duplicate_existing_anchor,敦义崇礼碉楼,西樵镇
IH_0419,不可移动文物Excel.xls,不可移动文物,古建筑,坛庙祠堂,尚未核定公布为文物保护单位的不可移动文物,财正李公祠,清代,广东省佛山市南海区狮山镇黎岗村委会礼东村,狮山镇,point,113.030542,23.122685,address_token_centroid,0.72,,狮山 (876 points),new_candidate,,狮山镇
IH_0420,不可移动文物Excel.xls,不可移动文物,古建筑,坛庙祠堂,尚未核定公布为文物保护单位的不可移动文物,南大步易氏大宗祠,清代,广东省佛山市南海区里水镇大步社区居委会南大步村佛山一环旁龙窟岗南大步村124号之一,里水镇,point,113.149987,23.135994,poi_name_fuzzy,0.84,,易氏大宗祠,new_candidate,,里水镇
IH_0421,不可移动文物Excel.xls,不可移动文物,古建筑,坛庙祠堂,尚未核定公布为文物保护单位的不可移动文物,海念潘氏宗祠,"明代,清代",广东省佛山市南海区狮山镇沙头社区居委会海念村,狮山镇,point,113.17906,23.080363,poi_name_fuzzy,0.84,,潘氏宗祠,new_candidate,,未标注
IH_0422,不可移动文物Excel.xls,不可移动文物,古建筑,坛庙祠堂,尚未核定公布为文物保护单位的不可移动文物,文智灵王古庙,清代,广东省佛山市南海区狮山镇沙头社区居委会文智村,狮山镇,point,112.992351,23.211164,poi_name_fuzzy,0.84,,灵王古庙,new_candidate,,狮山镇
IH_0423,不可移动文物Excel.xls,不可移动文物,古建筑,坛庙祠堂,尚未核定公布为文物保护单位的不可移动文物,文智潘公祠,明代,广东省佛山市南海区狮山镇沙头社区居委会文智村,狮山镇,point,112.986361,23.213948,poi_name_exact,0.94,,文智潘公祠,matched_poi_only,文智潘公祠,狮山镇
IH_0424,不可移动文物Excel.xls,不可移动文物,古建筑,学堂书院（及其他文化教育建筑）,尚未核定公布为文物保护单位的不可移动文物,张南乐南书室,清代,广东省佛山市南海区狮山镇高边社区居委会张南村张南二巷1号,狮山镇,point,113.030542,23.122685,address_token_centroid,0.72,,狮山 (876 points),new_candidate,,狮山镇
IH_0425,不可移动文物Excel.xls,不可移动文物,古建筑,坛庙祠堂,尚未核定公布为文物保护单位的不可移动文物,东胜麦氏大宗祠,清代,广东省佛山市南海区桂城街道叠北社区居委会东胜村北约文娱馆侧,桂城街道,point,113.125853,23.066323,poi_name_fuzzy,0.84,,麦氏大宗祠,new_candidate,,桂城街道
IH_0426,不可移动文物Excel.xls,不可移动文物,近现代重要史迹及代表性建筑,其他近现代代表性建筑,尚未核定公布为文物保护单位的不可移动文物,璜溪炮楼,近现代,广东省佛山市南海区狮山镇高边社区居委会璜溪村村口,狮山镇,point,113.088264,23.117349,poi_name_exact,0.94,,璜溪炮楼,matched_poi_only,璜溪炮楼,狮山镇
IH_0427,不可移动文物Excel.xls,不可移动文物,近现代重要史迹及代表性建筑,其他近现代代表性建筑,尚未核定公布为文物保护单位的不可移动文物,罗村公社兴贤人民会场旧址,近现代,广东省佛山市南海区狮山镇兴贤社区居委会下北村大街14号,狮山镇,point,113.030542,23.122685,address_token_centroid,0.72,,狮山 (876 points),new_candidate,,狮山镇
IH_0428,不可移动文物Excel.xls,不可移动文物,古建筑,池塘井泉,尚未核定公布为文物保护单位的不可移动文物,群星水井,明代,广东省佛山市南海区狮山镇镇谭边社区居委会群星村8巷9号侧,狮山镇,point,113.030542,23.122685,address_token_centroid,0.72,,狮山 (876 points),new_candidate,,狮山镇
IH_0429,不可移动文物Excel.xls,不可移动文物,古建筑,坛庙祠堂,尚未核定公布为文物保护单位的不可移动文物,兴贤吴氏祠,"明代,清代",广东省佛山市南海区狮山镇兴贤社区居委会下北村大街20号,狮山镇,point,113.030542,23.122685,address_token_centroid,0.72,,狮山 (876 points),new_candidate,,狮山镇
IH_0430,不可移动文物Excel.xls,不可移动文物,近现代重要史迹及代表性建筑,金融商贸建筑（含中华老字号）,尚未核定公布为文物保护单位的不可移动文物,大圃兴隆响押,近现代,广东省佛山市南海区狮山镇颜峰社区居委会大圃墟旧街63号,狮山镇,point,113.030542,23.122685,address_token_centroid,0.72,,狮山 (876 points),new_candidate,,狮山镇
IH_0431,不可移动文物Excel.xls,不可移动文物,古墓葬,普通墓葬,尚未核定公布为文物保护单位的不可移动文物,兴贤吴氏家族墓,宋辽西夏金元,广东省佛山市南海区狮山镇兴贤社区居委会马头岭西南麓,狮山镇,point,113.030542,23.122685,address_token_centroid,0.72,,狮山 (876 points),new_candidate,,狮山镇
IH_0432,不可移动文物Excel.xls,不可移动文物,古建筑,学堂书院（及其他文化教育建筑）,尚未核定公布为文物保护单位的不可移动文物,隔岗月恒书舍,明代,广东省佛山市南海区大沥镇沥西社区居委会隔岗村南九巷2号,大沥镇,point,113.145463,23.118352,town_representative_point,0.38,,,new_candidate,,大沥镇
IH_0433,不可移动文物Excel.xls,不可移动文物,古建筑,池塘井泉,尚未核定公布为文物保护单位的不可移动文物,宁溪水井,清代,广东省佛山市南海区狮山镇颜峰社区居委会宁溪村一巷2号侧,狮山镇,point,113.030542,23.122685,address_token_centroid,0.72,,狮山 (876 points),new_candidate,,狮山镇
IH_0434,不可移动文物Excel.xls,不可移动文物,古建筑,坛庙祠堂,尚未核定公布为文物保护单位的不可移动文物,兴贤吴太史祖祠,"明代,清代",广东省佛山市南海区狮山镇兴贤社区居委会南约村村口,狮山镇,point,113.071203,23.123276,poi_name_fuzzy,0.84,,吴太史祖祠,new_candidate,,狮山镇
IH_0435,不可移动文物Excel.xls,不可移动文物,古建筑,坛庙祠堂,尚未核定公布为文物保护单位的不可移动文物,丹邱陈氏大宗祠,清代,广东省佛山市南海区狮山镇颜峰社区居委会丹邱村南门街1号侧,狮山镇,point,113.196227,23.190165,poi_name_fuzzy,0.84,,陈氏大宗祠,new_candidate,,里水镇
IH_0436,不可移动文物Excel.xls,不可移动文物,古建筑,坛庙祠堂,市级和县级文物保护单位,漖表李氏宗祠,清代,广东省佛山市南海区大沥镇黄岐社区居委会漖表村环村东路,大沥镇,point,112.99534,23.19254,poi_name_fuzzy,0.84,,李氏宗祠,new_candidate,,狮山镇
IH_0437,不可移动文物Excel.xls,不可移动文物,古建筑,坛庙祠堂,尚未核定公布为文物保护单位的不可移动文物,文贵潘公祠,清代,广东省佛山市南海区狮山镇沙头社区居委会文贵村村口,狮山镇,point,112.983092,23.214013,poi_name_fuzzy,0.84,,文贵潘公祠-珠江纵队独立第三大队队部旧址,new_candidate,,狮山镇
IH_0438,不可移动文物Excel.xls,不可移动文物,古建筑,坛庙祠堂,尚未核定公布为文物保护单位的不可移动文物,大雄陶公祠,清代,广东省佛山市南海区狮山镇华涌社区居委会五约村一巷1号,狮山镇,point,113.030542,23.122685,address_token_centroid,0.72,,狮山 (876 points),new_candidate,,狮山镇
IH_0439,不可移动文物Excel.xls,不可移动文物,古建筑,坛庙祠堂,尚未核定公布为文物保护单位的不可移动文物,六联李氏大宗祠,清代,广东省佛山市南海区大沥镇六联社区居委会中村村祠堂大街1号,大沥镇,point,113.015703,23.041153,poi_name_fuzzy,0.84,,李氏大宗祠,new_candidate,,狮山镇
IH_0440,不可移动文物Excel.xls,不可移动文物,近现代重要史迹及代表性建筑,文化教育建筑及附属物,尚未核定公布为文物保护单位的不可移动文物,横江图书馆,近现代,广东省佛山市南海区大沥镇横江社区居委会横江小学内,大沥镇,point,113.145463,23.118352,town_representative_point,0.38,,,new_candidate,,大沥镇
IH_0441,不可移动文物Excel.xls,不可移动文物,古建筑,坛庙祠堂,市级和县级文物保护单位,颜氏大宗祠,清代,广东省佛山市南海区大沥镇河西社区居委会颜边村新街76号,大沥镇,point,113.14678,23.093506,poi_name_exact,0.94,,颜氏大宗祠,matched_poi_only,颜氏大宗祠,大沥镇
IH_0442,不可移动文物Excel.xls,不可移动文物,古建筑,学堂书院（及其他文化教育建筑）,尚未核定公布为文物保护单位的不可移动文物,颜边松隐家塾,清代,广东省佛山市南海区大沥镇河西社区居委会颜边村旧街36号,大沥镇,point,113.153404,23.090776,poi_name_fuzzy,0.84,,松隐家塾,new_candidate,,大沥镇
IH_0443,不可移动文物Excel.xls,不可移动文物,古建筑,坛庙祠堂,尚未核定公布为文物保护单位的不可移动文物,镇宇颜公祠,清代,广东省佛山市南海区大沥镇河西社区居委会颜边村旧街11号,大沥镇,point,113.14845,23.093462,poi_name_exact,0.94,,镇宇颜公祠,matched_poi_only,镇宇颜公祠,大沥镇
IH_0444,不可移动文物Excel.xls,不可移动文物,古建筑,坛庙祠堂,尚未核定公布为文物保护单位的不可移动文物,向亭颜公祠,清代,广东省佛山市南海区大沥镇河西社区居委会颜边村旧街40号,大沥镇,point,113.147591,23.093325,poi_name_exact,0.94,,向亭颜公祠,matched_poi_only,向亭颜公祠,大沥镇
IH_0445,不可移动文物Excel.xls,不可移动文物,古建筑,桥涵码头,尚未核定公布为文物保护单位的不可移动文物,烟桥水步,清代,广东省佛山市南海区九江镇烟南村委会烟桥村何氏大宗祠西边约30米水道边烟桥东端南侧。,九江镇,point,112.959097,22.865251,town_representative_point,0.38,,,new_candidate,,九江镇
IH_0446,不可移动文物Excel.xls,不可移动文物,古建筑,坛庙祠堂,尚未核定公布为文物保护单位的不可移动文物,黎边村黎西黎氏宗祠,清代,广东省佛山市南海区狮山镇狮岭村委会黎边村洪圣古庙东侧。,狮山镇,point,113.169065,23.049273,poi_name_fuzzy,0.84,,黎氏宗祠,new_candidate,,桂城街道
IH_0447,不可移动文物Excel.xls,不可移动文物,古建筑,池塘井泉,尚未核定公布为文物保护单位的不可移动文物,黎边村黎东水井,清代,广东省佛山市南海区狮山镇狮岭村委会黎边村黎东祖盛黎公祠前,狮山镇,point,113.030542,23.122685,address_token_centroid,0.72,,狮山 (876 points),new_candidate,,狮山镇
IH_0448,不可移动文物Excel.xls,不可移动文物,古建筑,坛庙祠堂,尚未核定公布为文物保护单位的不可移动文物,黎边村黎东雪梅黎公祠,清代,广东省佛山市南海区狮山镇狮岭村委会黎边村黎东村黎氏宗祠东侧,狮山镇,point,113.030542,23.122685,address_token_centroid,0.72,,狮山 (876 points),new_candidate,,狮山镇
IH_0449,不可移动文物Excel.xls,不可移动文物,古建筑,坛庙祠堂,尚未核定公布为文物保护单位的不可移动文物,黎边村黎东黎氏宗祠,清代,广东省佛山市南海区狮山镇狮岭村委会黎边村雪梅黎公祠西侧,狮山镇,point,113.169065,23.049273,poi_name_fuzzy,0.84,,黎氏宗祠,new_candidate,,桂城街道
IH_0450,不可移动文物Excel.xls,不可移动文物,古建筑,池塘井泉,尚未核定公布为文物保护单位的不可移动文物,黎边村黎西水井,清代,广东省佛山市南海区狮山镇狮岭村委会黎边村黎西向南四巷1-14前约5米处,狮山镇,point,113.030542,23.122685,address_token_centroid,0.72,,狮山 (876 points),new_candidate,,狮山镇
IH_0451,不可移动文物Excel.xls,不可移动文物,古建筑,桥涵码头,尚未核定公布为文物保护单位的不可移动文物,烟桥村烟桥,清代,广东省佛山市南海区九江镇烟南村委会烟桥村何氏六世祖祠侧前方,九江镇,point,112.96172,22.873523,address_token_centroid,0.72,,烟桥村 (3 points),new_candidate,,西樵镇
IH_0452,不可移动文物Excel.xls,不可移动文物,古建筑,池塘井泉,尚未核定公布为文物保护单位的不可移动文物,松塘村桂香坊逢源井,清代,广东省佛山市南海区西樵镇上金瓯社区居委会松塘村逢源巷口,西樵镇,point,112.910067,22.986684,address_token_centroid,0.72,,西樵镇上金瓯社区 (2 points),new_candidate,,西樵镇
IH_0453,不可移动文物Excel.xls,不可移动文物,古建筑,坛庙祠堂,尚未核定公布为文物保护单位的不可移动文物,世老老氏七世祠,清代,广东省佛山市南海区九江镇朗星社区居委会世老村西北部,九江镇,point,112.959097,22.865251,town_representative_point,0.38,,,new_candidate,,九江镇
IH_0454,不可移动文物Excel.xls,不可移动文物,古建筑,坛庙祠堂,尚未核定公布为文物保护单位的不可移动文物,大榄何氏三世祖祠,"明代,清代",广东省佛山市南海区狮山镇大榄社区居委会大榄一村西北角,狮山镇,point,113.030542,23.122685,address_token_centroid,0.72,,狮山 (876 points),new_candidate,,狮山镇
IH_0455,不可移动文物Excel.xls,不可移动文物,古建筑,池塘井泉,尚未核定公布为文物保护单位的不可移动文物,西樵孖井,清代,广东省佛山市南海区西樵镇东碧社区居委会官山高街西樵旧中心小学前,西樵镇,point,112.935322,22.941121,town_representative_point,0.38,,,new_candidate,,西樵镇
IH_0456,不可移动文物Excel.xls,不可移动文物,古墓葬,名人或贵族墓,尚未核定公布为文物保护单位的不可移动文物,冯锡镛墓,清代,广东省佛山市南海区西樵镇东碧社区居委会西樵山云端村天马峰西北麓,西樵镇,point,112.935322,22.941121,town_representative_point,0.38,,,new_candidate,,西樵镇
IH_0457,不可移动文物Excel.xls,不可移动文物,古墓葬,普通墓葬,尚未核定公布为文物保护单位的不可移动文物,大宋处士崔世英胡氏合葬墓,宋辽西夏金元,广东省佛山市南海区西樵镇东碧社区居委会西樵山金钟岗北麓,西樵镇,point,112.935322,22.941121,town_representative_point,0.38,,,new_candidate,,西樵镇
IH_0458,不可移动文物Excel.xls,不可移动文物,古建筑,坛庙祠堂,尚未核定公布为文物保护单位的不可移动文物,远扬信芳黄公祠,清代,广东省佛山市南海区大沥镇平地社区居委会涌边大街7号,大沥镇,point,113.156813,23.119746,poi_name_exact,0.94,,远扬信芳黄公祠,matched_poi_only,远扬信芳黄公祠,大沥镇
IH_0459,不可移动文物Excel.xls,不可移动文物,古建筑,坛庙祠堂,尚未核定公布为文物保护单位的不可移动文物,大榄洪圣古庙,"明代,清代",广东省佛山市南海区狮山镇大榄社区居委会大榄四村向阳旧区北五巷18号,狮山镇,point,113.014767,23.205924,poi_name_fuzzy,0.84,,洪圣古庙,new_candidate,,狮山镇
IH_0460,不可移动文物Excel.xls,不可移动文物,古建筑,坛庙祠堂,尚未核定公布为文物保护单位的不可移动文物,圣堂何氏宗祠,清代,广东省佛山市南海区桂城街道叠南社区居委会圣堂村127号,桂城街道,point,112.961625,22.967047,poi_name_fuzzy,0.84,,何氏宗祠,new_candidate,,西樵镇
IH_0461,不可移动文物Excel.xls,不可移动文物,古建筑,坛庙祠堂,尚未核定公布为文物保护单位的不可移动文物,古山黄公祠,清代,广东省佛山市南海区大沥镇平地社区居委会平地北社涌边大街1号,大沥镇,point,113.156998,23.120282,poi_name_exact,0.94,,古山黄公祠,matched_poi_only,古山黄公祠,大沥镇
IH_0462,不可移动文物Excel.xls,不可移动文物,古建筑,坛庙祠堂,尚未核定公布为文物保护单位的不可移动文物,大榄澄江邓公祠,清代,广东省佛山市南海区狮山镇大榄社区居委会大榄二村1号北侧,狮山镇,point,113.030542,23.122685,address_token_centroid,0.72,,狮山 (876 points),new_candidate,,狮山镇
IH_0463,不可移动文物Excel.xls,不可移动文物,古建筑,驿站会馆（及其他交通道路设施、旅行服务设施）,尚未核定公布为文物保护单位的不可移动文物,西樵山山南古道,明代,广东省佛山市南海区西樵镇东碧社区居委会云谷村蜘蛛峰南麓（云门石刻至冬菇石段）,西樵镇,point,112.960715,22.935872,address_token_centroid,0.72,,山山 (3 points),new_candidate,,西樵镇
IH_0464,不可移动文物Excel.xls,不可移动文物,古文化遗址,其他古遗址,尚未核定公布为文物保护单位的不可移动文物,云谷书院遗址,明代,广东省佛山市南海区西樵镇东碧社区居委会云谷村大科峰南侧的天峰东南麓，,西樵镇,point,112.975282,22.922947,poi_name_fuzzy,0.84,,云谷书院,new_candidate,,西樵镇
IH_0465,不可移动文物Excel.xls,不可移动文物,古墓葬,普通墓葬,尚未核定公布为文物保护单位的不可移动文物,西岸关氏家族墓,"宋辽西夏金元,明代,清代",广东省佛山市南海区西樵镇西岸社区居委会银坑村白虎山北麓,西樵镇,point,112.935322,22.941121,town_representative_point,0.38,,,new_candidate,,西樵镇
IH_0466,不可移动文物Excel.xls,不可移动文物,石窟寺及石刻,摩崖石刻,市级和县级文物保护单位,云门摩崖石刻,明代,广东省佛山市南海区西樵镇东碧社区居委会云谷村蜘蛛峰南麓,西樵镇,point,112.975743,22.932326,poi_name_fuzzy,0.84,,摩崖石刻,new_candidate,,西樵镇
IH_0467,不可移动文物Excel.xls,不可移动文物,古墓葬,普通墓葬,尚未核定公布为文物保护单位的不可移动文物,竹径关氏始祖墓,"宋辽西夏金元,明代",广东省佛山市南海区丹灶镇良登村委会竹径村关氏大宗祠西南约63米后山东北麓,丹灶镇,point,112.92091,23.06365,town_representative_point,0.38,,,new_candidate,,丹灶镇
IH_0468,不可移动文物Excel.xls,不可移动文物,古建筑,坛庙祠堂,尚未核定公布为文物保护单位的不可移动文物,坎北胡氏宗祠,清代,广东省佛山市南海区大沥镇沥北社区居委会坎北村北约大街1号,大沥镇,point,113.133419,23.180881,poi_name_fuzzy,0.84,,胡氏宗祠,new_candidate,,里水镇
IH_0469,不可移动文物Excel.xls,不可移动文物,近现代重要史迹及代表性建筑,依法审批后原址重建的不可移动文物，具有标志意义或典型意义。,尚未核定公布为文物保护单位的不可移动文物,大步农会旧址（汪氏宗祠联胜堂）,近现代,广东省佛山市南海区里水镇大步社区居委会冲口村9号,里水镇,point,113.138868,23.223757,town_representative_point,0.38,,,new_candidate,,里水镇
IH_0470,不可移动文物Excel.xls,不可移动文物,古建筑,坛庙祠堂,尚未核定公布为文物保护单位的不可移动文物,桐坡黄公祠,清代,广东省佛山市南海区大沥镇平地社区居委会平地村北溪大街7号,大沥镇,point,113.145463,23.118352,town_representative_point,0.38,,,new_candidate,,大沥镇
IH_0471,不可移动文物Excel.xls,不可移动文物,古建筑,坛庙祠堂,尚未核定公布为文物保护单位的不可移动文物,茶基华陀古庙,清代,广东省佛山市南海区桂城街道叠南社区居委会茶基村25号,桂城街道,point,113.15563,23.044054,address_token_centroid,0.72,,桂城街 (925 points),new_candidate,,桂城街道
IH_0472,不可移动文物Excel.xls,不可移动文物,古建筑,坛庙祠堂,尚未核定公布为文物保护单位的不可移动文物,成刚何公祠,清代,广东省佛山市南海区桂城街道叠南社区茶基村168号,桂城街道,point,113.15563,23.044054,address_token_centroid,0.72,,桂城街 (925 points),new_candidate,,桂城街道
IH_0473,不可移动文物Excel.xls,不可移动文物,古建筑,坛庙祠堂,尚未核定公布为文物保护单位的不可移动文物,大石二圣古庙,清代,广东省佛山市南海区里水镇大石社区居委会岗头顶半山脚南麓,里水镇,point,113.127923,23.197143,poi_name_fuzzy,0.84,,二圣古庙,new_candidate,,里水镇
IH_0474,不可移动文物Excel.xls,不可移动文物,近现代重要史迹及代表性建筑,医疗卫生建筑,尚未核定公布为文物保护单位的不可移动文物,官窑同人善堂,近现代,广东省佛山市南海区狮山镇驿园社区振兴路即官窑生菜会会馆侧,狮山镇,point,113.030542,23.122685,address_token_centroid,0.72,,狮山 (876 points),new_candidate,,狮山镇
IH_0475,不可移动文物Excel.xls,不可移动文物,古墓葬,名人或贵族墓,尚未核定公布为文物保护单位的不可移动文物,罗文俊（邨）墓,清代,广东省佛山市南海区狮山镇大浩湖社区广佛新世界庄园35号地内,狮山镇,point,113.050936,23.103518,address_token_centroid,0.62,,狮山镇大浩湖社区 (1 points),new_candidate,,狮山镇
IH_0476,不可移动文物Excel.xls,不可移动文物,近现代重要史迹及代表性建筑,名人墓,尚未核定公布为文物保护单位的不可移动文物,黄少强先生墓园,近现代,广东省佛山市南海区狮山镇吴屋村委会东风水库田螺打露岗,狮山镇,point,113.030542,23.122685,address_token_centroid,0.72,,狮山 (876 points),new_candidate,,狮山镇
IH_0477,不可移动文物Excel.xls,不可移动文物,古建筑,坛庙祠堂,尚未核定公布为文物保护单位的不可移动文物,俊宇何公祠,清代,广东省佛山市南海区桂城街道叠南社区居委会茶基村169号,桂城街道,point,113.118242,23.05601,poi_name_exact,0.94,,俊宇何公祠,matched_poi_only,俊宇何公祠,桂城街道
IH_0478,不可移动文物Excel.xls,不可移动文物,古建筑,坛庙祠堂,尚未核定公布为文物保护单位的不可移动文物,药轩黄公祠,清代,广东省佛山市南海区大沥镇社区居委会平地村文明路,大沥镇,point,113.153779,23.119553,poi_name_exact,0.94,,药轩黄公祠,matched_poi_only,药轩黄公祠,大沥镇
IH_0479,不可移动文物Excel.xls,不可移动文物,近现代重要史迹及代表性建筑,典型风格建筑或者构筑物,尚未核定公布为文物保护单位的不可移动文物,罗南鬼楼庄,近现代,广东省佛山市南海区狮山镇罗村社区罗东村祠七巷1一6,狮山镇,point,113.030542,23.122685,address_token_centroid,0.72,,狮山 (876 points),new_candidate,,狮山镇
IH_0480,不可移动文物Excel.xls,不可移动文物,近现代重要史迹及代表性建筑,军事建筑及设施,尚未核定公布为文物保护单位的不可移动文物,南浦炮楼,近现代,广东省佛山市南海区狮山镇南浦村委会北向村,狮山镇,point,113.030542,23.122685,address_token_centroid,0.72,,狮山 (876 points),new_candidate,,狮山镇
IH_0481,不可移动文物Excel.xls,不可移动文物,古墓葬,普通墓葬,尚未核定公布为文物保护单位的不可移动文物,张玉铉墓,宋辽西夏金元,广东省佛山市南海区九江镇南方社区居委会芙蓉岗西南麓,九江镇,point,112.959097,22.865251,town_representative_point,0.38,,,new_candidate,,九江镇
IH_0482,不可移动文物Excel.xls,不可移动文物,古建筑,坛庙祠堂,尚未核定公布为文物保护单位的不可移动文物,学正黄氏大宗祠,"明代,清代",广东省佛山市南海区大沥镇平地社区居委会东约村学正1号,大沥镇,point,113.021404,23.062956,poi_name_fuzzy,0.84,,黄氏大宗祠,new_candidate,,狮山镇
IH_0483,不可移动文物Excel.xls,不可移动文物,古文化遗址,早期人类活动场所,尚未核定公布为文物保护单位的不可移动文物,南海平面岗遗址,"旧石器时代,新石器时代",广东省佛山市南海区西樵镇显岗社区居委会富贤村西北部平面岗新晖锦鲤场北侧,西樵镇,point,112.935322,22.941121,town_representative_point,0.38,,,new_candidate,,西樵镇
IH_0484,不可移动文物Excel.xls,不可移动文物,古文化遗址,窑址,尚未核定公布为文物保护单位的不可移动文物,金山公园窑址,"隋唐五代十国,宋辽西夏金元",广东省佛山市南海区里水镇瑶头村金山公园西北部,里水镇,point,113.097409,23.249307,poi_name_fuzzy,0.84,,金山公园,new_candidate,,里水镇
MUS_0001,南海区11家博物馆基本信息2025.6.xlsx,博物馆,展示型文化桥梁,非国有,非国有,佛山市南海区玄憬龙博物馆,,佛山市南海区九江镇梅圳中和村正路坊95号,九江镇,point,112.997034,22.860525,poi_name_exact,0.94,,玄憬龙博物馆,matched_poi_only,玄憬龙博物馆,九江镇
MUS_0002,南海区11家博物馆基本信息2025.6.xlsx,博物馆,展示型文化桥梁,非国有,非国有,九江双蒸博物馆,,佛山市南海区九江镇惠民路12号,九江镇,point,113.026582,22.812498,poi_name_exact,0.94,,九江双蒸博物馆,matched_poi_only,九江双蒸博物馆,九江镇
MUS_0003,南海区11家博物馆基本信息2025.6.xlsx,博物馆,展示型文化桥梁,非国有,非国有,凯仕乐医疗保健器械养生博物馆,,佛山市南海区九江镇奇腾路13号,九江镇,point,113.015378,22.835029,address_token_centroid,0.62,,九江镇奇腾路 (1 points),new_candidate,,九江镇
MUS_0004,南海区11家博物馆基本信息2025.6.xlsx,博物馆,展示型文化桥梁,国有,国有,九江侨乡博物馆,,南海区九江镇人民路40号,九江镇,point,113.018104,22.833302,poi_name_exact,0.94,,九江侨乡博物馆,matched_poi_only,九江侨乡博物馆,九江镇
MUS_0005,南海区11家博物馆基本信息2025.6.xlsx,博物馆,展示型文化桥梁,非国有,非国有,汤南私塾博物馆,,南海区里水镇和顺汤村汤南古村,里水镇,point,113.132076,23.291646,poi_name_exact,0.94,,汤南私塾博物馆,matched_poi_only,汤南私塾博物馆,里水镇
MUS_0006,南海区11家博物馆基本信息2025.6.xlsx,博物馆,展示型文化桥梁,非国有,非国有,佛山市南海区楚天黄科举匾额文化博物馆,,广东省佛山市南海区沿江北路25号,里水镇,point,113.125697,23.254608,address_token_centroid,0.72,,沿江北路 (6 points),new_candidate,,里水镇
MUS_0007,南海区11家博物馆基本信息2025.6.xlsx,博物馆,展示型文化桥梁,非国有/二级,非国有/二级,广东大观博物馆,,广东省佛山市南海区广东金融高新区灯湖西路28号,桂城街道,point,113.145968,23.049718,poi_name_exact,0.94,,广东大观博物馆,matched_poi_only,广东大观博物馆,桂城街道
MUS_0008,南海区11家博物馆基本信息2025.6.xlsx,博物馆,展示型文化桥梁,非国有/二级,非国有/二级,佛山市岭南金融博物馆,,佛山市南海区桂城街道灯湖东路26号,桂城街道,point,113.148703,23.064166,poi_name_fuzzy,0.84,,佛山市岭南金融博物馆(新馆),new_candidate,,桂城街道
MUS_0009,南海区11家博物馆基本信息2025.6.xlsx,博物馆,展示型文化桥梁,国有/二级,国有/二级,南海区博物馆,,广东省佛山市南海区西樵镇西樵山南门入口处东侧,西樵镇,point,112.935322,22.941121,town_representative_point,0.38,,,new_candidate,,西樵镇
MUS_0010,南海区11家博物馆基本信息2025.6.xlsx,博物馆,展示型文化桥梁,非国有,非国有,福厚博物馆,,"佛山市南海区西樵镇上金瓯松塘村
文昌圩23号（临时地址）",西樵镇,point,112.914431,22.985394,poi_name_exact,0.94,,佛山市南海区福厚博物馆,matched_poi_only,佛山市南海区福厚博物馆,西樵镇
MUS_0011,南海区11家博物馆基本信息2025.6.xlsx,博物馆,展示型文化桥梁,非国有,非国有,佛山市南海区宇森口腔器材博物馆,,南海区狮山镇罗村新光源产业基地光明大道17号,狮山镇,point,113.0455,23.061944,address_token_centroid,0.72,,狮山镇罗村 (162 points),new_candidate,,狮山镇
HC_0001,附件：历史文化资源名录.xls,灌溉遗产,灌溉遗产,,世界级,桑园围,,桑园围,西樵镇,area,112.935322,22.941121,town_representative_point,0.38,,,new_candidate,,西樵镇
HC_0002,附件：历史文化资源名录.xls,历史文化名镇,历史文化名镇,,国家级,西樵镇,,西樵镇,西樵镇,area,112.99,22.94,existing_anchor_name,0.98,西樵镇,,duplicate_existing_anchor,西樵镇,西樵镇
HC_0003,附件：历史文化资源名录.xls,历史文化名村,历史文化名村,,国家级,西樵镇松塘村,,西樵镇松塘村,西樵镇,area,112.917861,22.992725,existing_anchor_name,0.98,西樵镇松塘村,,duplicate_existing_anchor,西樵镇松塘村,丹灶镇
HC_0004,附件：历史文化资源名录.xls,历史文化名村,历史文化名村,,省 级 6个,西樵镇简村,,西樵镇简村,西樵镇,area,112.963901,22.952089,existing_anchor_fuzzy,0.88,西樵镇简村村,,new_candidate,,西樵镇
HC_0005,附件：历史文化资源名录.xls,历史文化名村,历史文化名村,,省 级 6个,西樵镇百西村头村,,西樵镇百西村头村,西樵镇,area,112.927552,22.967856,existing_anchor_name,0.98,西樵镇百西村头村,,duplicate_existing_anchor,西樵镇百西村头村,西樵镇
HC_0006,附件：历史文化资源名录.xls,历史文化名村,历史文化名村,,省 级 6个,九江镇烟桥村,,九江镇烟桥村,九江镇,area,112.965586,22.87848,existing_anchor_name,0.98,九江镇烟桥村,,duplicate_existing_anchor,九江镇烟桥村,西樵镇
HC_0007,附件：历史文化资源名录.xls,历史文化名村,历史文化名村,,省 级 6个,丹灶镇仙岗村,,丹灶镇仙岗村,丹灶镇,area,112.891164,23.046503,existing_anchor_name,0.98,丹灶镇仙岗村,,duplicate_existing_anchor,丹灶镇仙岗村,丹灶镇
HC_0008,附件：历史文化资源名录.xls,历史文化名村,历史文化名村,,省 级 6个,丹灶镇南沙棋盘村,,丹灶镇南沙棋盘村,丹灶镇,area,112.9,23.12,existing_anchor_name,0.98,丹灶镇南沙棋盘村,,duplicate_existing_anchor,丹灶镇南沙棋盘村,未标注
HC_0009,附件：历史文化资源名录.xls,历史文化名村,历史文化名村,,省 级 6个,大沥镇璜溪村,,大沥镇璜溪村,大沥镇,area,113.095101,23.114732,address_token_centroid,0.72,,璜溪村 (2 points),new_candidate,,大沥镇
HC_0010,附件：历史文化资源名录.xls,传统村落,传统村落,,中国传统村落（8个）,西樵镇松塘村,,西樵镇松塘村,西樵镇,area,112.917861,22.992725,existing_anchor_name,0.98,西樵镇松塘村,,duplicate_existing_anchor,西樵镇松塘村,丹灶镇
HC_0011,附件：历史文化资源名录.xls,传统村落,传统村落,,中国传统村落（8个）,桂城街道茶基村,,桂城街道茶基村,桂城街道,area,113.15563,23.044054,address_token_centroid,0.72,,桂城街 (925 points),new_candidate,,桂城街道
HC_0012,附件：历史文化资源名录.xls,传统村落,传统村落,,中国传统村落（8个）,九江镇烟南烟桥村,,九江镇烟南烟桥村,九江镇,area,112.959574,22.872088,address_token_centroid,0.62,,九江镇烟南烟桥村 (1 points),new_candidate,,西樵镇
HC_0013,附件：历史文化资源名录.xls,传统村落,传统村落,,中国传统村落（8个）,丹灶镇仙岗社区,,丹灶镇仙岗社区,丹灶镇,area,112.88,23.05,existing_anchor_name,0.98,丹灶镇仙岗社区,,duplicate_existing_anchor,丹灶镇仙岗社区,丹灶镇
HC_0014,附件：历史文化资源名录.xls,传统村落,传统村落,,中国传统村落（8个）,狮山镇高边社区璜溪村,,狮山镇高边社区璜溪村,狮山镇,area,113.088838,23.116726,address_token_centroid,0.62,,狮山镇高边社区 (1 points),new_candidate,,狮山镇
HC_0015,附件：历史文化资源名录.xls,传统村落,传统村落,,中国传统村落（8个）,狮山镇狮岭村黎边村,,狮山镇狮岭村黎边村,狮山镇,area,113.030542,23.122685,address_token_centroid,0.72,,狮山 (876 points),new_candidate,,狮山镇
HC_0016,附件：历史文化资源名录.xls,传统村落,传统村落,,中国传统村落（8个）,里水镇汤村村汤南村,,里水镇汤村村汤南村,里水镇,area,113.138868,23.223757,town_representative_point,0.38,,,new_candidate,,里水镇
HC_0017,附件：历史文化资源名录.xls,传统村落,传统村落,,中国传统村落（8个）,里水镇赤山村赤山村,,里水镇赤山村赤山村,里水镇,area,113.134628,23.216031,address_token_centroid,0.62,,里水镇赤山村赤山 (1 points),new_candidate,,里水镇
HC_0018,附件：历史文化资源名录.xls,传统村落,传统村落,,广东省传统村落（10个）,西樵镇简村村,,西樵镇简村村,西樵镇,area,112.963901,22.952089,existing_anchor_name,0.98,西樵镇简村村,,duplicate_existing_anchor,西樵镇简村村,西樵镇
HC_0019,附件：历史文化资源名录.xls,传统村落,传统村落,,广东省传统村落（10个）,西樵镇百西村,,西樵镇百西村,西樵镇,area,112.92,22.96,existing_anchor_name,0.98,西樵镇百西村,,duplicate_existing_anchor,西樵镇百西村,西樵镇
HC_0020,附件：历史文化资源名录.xls,传统村落,传统村落,,广东省传统村落（10个）,丹灶镇棋盘村,,丹灶镇棋盘村,丹灶镇,area,112.9,23.12,existing_anchor_name,0.98,丹灶镇棋盘村,,duplicate_existing_anchor,丹灶镇棋盘村,未标注
HC_0021,附件：历史文化资源名录.xls,传统村落,传统村落,,广东省传统村落（10个）,丹灶镇和平村,,丹灶镇和平村,丹灶镇,area,112.940406,22.971261,existing_anchor_name,0.98,丹灶镇和平村,,duplicate_existing_anchor,丹灶镇和平村,西樵镇
HC_0022,附件：历史文化资源名录.xls,传统村落,传统村落,,广东省传统村落（10个）,九江镇烟桥村,,九江镇烟桥村,九江镇,area,112.965586,22.87848,existing_anchor_name,0.98,九江镇烟桥村,,duplicate_existing_anchor,九江镇烟桥村,西樵镇
HC_0023,附件：历史文化资源名录.xls,传统村落,传统村落,,广东省传统村落（10个）,里水镇汤南村,,里水镇汤南村,里水镇,area,113.130342,23.291148,address_token_centroid,0.62,,汤南村 (1 points),new_candidate,,里水镇
HC_0024,附件：历史文化资源名录.xls,传统村落,传统村落,,广东省传统村落（10个）,里水镇孔西村,,里水镇孔西村,里水镇,area,113.138868,23.223757,town_representative_point,0.38,,,new_candidate,,里水镇
HC_0025,附件：历史文化资源名录.xls,传统村落,传统村落,,广东省传统村落（10个）,桂城街道江头村,,桂城街道江头村,桂城街道,area,113.15563,23.044054,address_token_centroid,0.72,,桂城街 (925 points),new_candidate,,桂城街道
HC_0026,附件：历史文化资源名录.xls,传统村落,传统村落,,广东省传统村落（10个）,丹灶镇仙岗村,,丹灶镇仙岗村,丹灶镇,area,112.891164,23.046503,existing_anchor_name,0.98,丹灶镇仙岗村,,duplicate_existing_anchor,丹灶镇仙岗村,丹灶镇
HC_0027,附件：历史文化资源名录.xls,传统村落,传统村落,,广东省传统村落（10个）,大沥镇璜溪村,,大沥镇璜溪村,大沥镇,area,113.095101,23.114732,address_token_centroid,0.72,,璜溪村 (2 points),new_candidate,,大沥镇
HC_0028,附件：历史文化资源名录.xls,历史文化街区,历史文化街区,,省 级 3片,西樵白云洞街区,,西樵白云洞街区,西樵镇,line_or_area,112.965114,22.943985,address_token_centroid,0.62,,西樵白云洞 (1 points),new_candidate,,西樵镇
HC_0029,附件：历史文化资源名录.xls,历史文化街区,历史文化街区,,省 级 3片,九江烟桥街区,,九江烟桥街区,九江镇,line_or_area,112.959097,22.865251,town_representative_point,0.38,,,new_candidate,,九江镇
HC_0030,附件：历史文化资源名录.xls,历史文化街区,历史文化街区,,省 级 3片,狮山小塘黎边街区,,狮山小塘黎边街区,狮山镇,line_or_area,113.030542,23.122685,address_token_centroid,0.72,,狮山 (876 points),new_candidate,,狮山镇
HC_0031,附件：历史文化资源名录.xls,历史建筑名录,历史建筑名录,,市级（34处）,桂城街道永胜河北书院,,桂城街道永胜河北书院,桂城街道,point,113.166559,23.061517,poi_name_fuzzy,0.84,,河北书院,new_candidate,,桂城街道
HC_0032,附件：历史文化资源名录.xls,历史建筑名录,历史建筑名录,,市级（34处）,桂城街道黎述绪宅,,桂城街道黎述绪宅,桂城街道,point,113.160287,23.058857,poi_name_fuzzy,0.84,,佛山市历史建筑黎述绪宅,new_candidate,,桂城街道
HC_0033,附件：历史文化资源名录.xls,历史建筑名录,历史建筑名录,,市级（34处）,桂城街道临溪何公祠,,桂城街道临溪何公祠,桂城街道,point,113.175531,23.06409,poi_name_exact,0.94,,临溪何公祠,matched_poi_only,临溪何公祠,桂城街道
HC_0034,附件：历史文化资源名录.xls,历史建筑名录,历史建筑名录,,市级（34处）,桂城街道瑞庭唐公祠,,桂城街道瑞庭唐公祠,桂城街道,point,113.152094,23.028992,poi_name_exact,0.94,,瑞庭唐公祠,matched_poi_only,瑞庭唐公祠,桂城街道
HC_0035,附件：历史文化资源名录.xls,历史建筑名录,历史建筑名录,,市级（34处）,桂城街道东二水月宫,,桂城街道东二水月宫,桂城街道,point,113.15347,23.027811,poi_name_exact,0.94,,东二水月宫,matched_poi_only,东二水月宫,桂城街道
HC_0036,附件：历史文化资源名录.xls,历史建筑名录,历史建筑名录,,市级（34处）,桂城街道西河林氏大宗祠,,桂城街道西河林氏大宗祠,桂城街道,point,113.197454,23.039498,poi_name_fuzzy,0.84,,林氏大宗祠,new_candidate,,桂城街道
HC_0037,附件：历史文化资源名录.xls,历史建筑名录,历史建筑名录,,市级（34处）,狮山镇总排吴氏宗祠,,狮山镇总排吴氏宗祠,狮山镇,point,112.945955,23.090041,poi_name_fuzzy,0.84,,吴氏宗祠,new_candidate,,丹灶镇
HC_0038,附件：历史文化资源名录.xls,历史建筑名录,历史建筑名录,,市级（34处）,狮山镇罗南杨氏大宗祠,,狮山镇罗南杨氏大宗祠,狮山镇,point,112.902931,23.131969,poi_name_fuzzy,0.84,,杨氏大宗祠,new_candidate,,丹灶镇
HC_0039,附件：历史文化资源名录.xls,历史建筑名录,历史建筑名录,,市级（34处）,狮山镇上柏黄氏大宗祠,,狮山镇上柏黄氏大宗祠,狮山镇,point,113.021404,23.062956,poi_name_fuzzy,0.84,,黄氏大宗祠,new_candidate,,狮山镇
HC_0040,附件：历史文化资源名录.xls,历史建筑名录,历史建筑名录,,市级（34处）,狮山真下柏黄氏大宗祠、声扬黄公祠、佛念黄公祠,,狮山真下柏黄氏大宗祠、声扬黄公祠、佛念黄公祠,狮山镇,point,113.021404,23.062956,poi_name_fuzzy,0.84,,黄氏大宗祠,new_candidate,,狮山镇
HC_0041,附件：历史文化资源名录.xls,历史建筑名录,历史建筑名录,,市级（34处）,狮山镇寨边李氏宗祠,,狮山镇寨边李氏宗祠,狮山镇,point,112.99534,23.19254,poi_name_fuzzy,0.84,,李氏宗祠,new_candidate,,狮山镇
HC_0042,附件：历史文化资源名录.xls,历史建筑名录,历史建筑名录,,市级（34处）,大沥镇白沙三堂书院,,大沥镇白沙三堂书院,大沥镇,point,113.205271,23.132094,poi_name_fuzzy,0.84,,三堂书院,new_candidate,,大沥镇
