[
  {
    "name": "狮舞（广东醒狮）",
    "level": "国家级",
    "town": "西樵镇",
    "lng": 112.987172,
    "lat": 22.938068,
    "category": "传统舞蹈",
    "geocode_source": "高德地理编码API",
    "geocode_address": "广东省佛山市南海区西樵镇"
  },
  {
    "name": "十番音乐（佛山十番）",
    "level": "国家级",
    "town": "桂城街道",
    "lng": 113.161502,
    "lat": 23.037979,
    "category": "传统音乐",
    "geocode_source": "高德地理编码API",
    "geocode_address": "广东省佛山市南海区桂城街道"
  },
  {
    "name": "官窑生菜会",
    "level": "省级",
    "town": "狮山镇",
    "lng": 113.079708,
    "lat": 23.222817,
    "category": "民俗",
    "geocode_source": "高德地理编码API",
    "geocode_address": "广东省佛山市南海区官窑"
  },
  {
    "name": "灯会（乐安花灯会）",
    "level": "省级",
    "town": "桂城街道",
    "lng": 113.161502,
    "lat": 23.037979,
    "category": "民俗",
    "geocode_source": "高德地理编码API",
    "geocode_address": "广东省佛山市南海区乐安桂城街道"
  },
  {
    "name": "九江双蒸酒酿制技艺",
    "level": "省级",
    "town": "九江镇",
    "lng": 112.993386,
    "lat": 22.831323,
    "category": "传统技艺",
    "geocode_source": "高德地理编码API",
    "geocode_address": "广东省佛山市南海区九江九江镇"
  },
  {
    "name": "赛龙舟（九江传统龙舟）",
    "level": "省级",
    "town": "九江镇",
    "lng": 112.993386,
    "lat": 22.831323,
    "category": "传统体育",
    "geocode_source": "高德地理编码API",
    "geocode_address": "广东省佛山市南海区九江九江镇"
  },
  {
    "name": "端午节（盐步老龙礼俗）",
    "level": "省级",
    "town": "大沥镇",
    "lng": 113.15967,
    "lat": 23.084058,
    "category": "民俗",
    "geocode_source": "高德地理编码API",
    "geocode_address": "广东省佛山市南海区盐步老龙大沥镇盐步"
  },
  {
    "name": "咏春拳（叶问宗支）",
    "level": "省级",
    "town": "桂城街道",
    "lng": 113.161502,
    "lat": 23.037979,
    "category": "传统体育",
    "geocode_source": "高德地理编码API",
    "geocode_address": "广东省佛山市南海区桂城街道"
  },
  {
    "name": "藤编（大沥）",
    "level": "省级",
    "town": "大沥镇",
    "lng": 113.149319,
    "lat": 23.106918,
    "category": "传统技艺",
    "geocode_source": "高德地理编码API",
    "geocode_address": "广东省佛山市南海区大沥镇"
  },
  {
    "name": "藤编（里水）",
    "level": "省级",
    "town": "里水镇",
    "lng": 113.164507,
    "lat": 23.198906,
    "category": "传统技艺",
    "geocode_source": "高德地理编码API",
    "geocode_address": "广东省佛山市南海区里水镇"
  },
  {
    "name": "金箔锻造技艺",
    "level": "省级",
    "town": "大沥镇",
    "lng": 113.149319,
    "lat": 23.106918,
    "category": "传统技艺",
    "geocode_source": "高德地理编码API",
    "geocode_address": "广东省佛山市南海区大沥镇"
  },
  {
    "name": "庙会（大仙诞庙会）",
    "level": "省级",
    "town": "西樵镇",
    "lng": 112.987172,
    "lat": 22.938068,
    "category": "民俗",
    "geocode_source": "高德地理编码API",
    "geocode_address": "广东省佛山市南海区西樵镇"
  },
  {
    "name": "粤曲",
    "level": "省级",
    "town": "桂城街道",
    "lng": 113.14645,
    "lat": 23.022247,
    "category": "传统音乐",
    "geocode_source": "高德地理编码API",
    "geocode_address": "广东省佛山市南海区桂城街道佛山市南海区文化馆"
  },
  {
    "name": "糕点制作技艺（九江煎堆）",
    "level": "省级",
    "town": "九江镇",
    "lng": 112.993386,
    "lat": 22.831323,
    "category": "传统技艺",
    "geocode_source": "高德地理编码API",
    "geocode_address": "广东省佛山市南海区九江九江镇"
  },
  {
    "name": "九江鱼花生产习俗",
    "level": "省级",
    "town": "九江镇",
    "lng": 112.993386,
    "lat": 22.831323,
    "category": "民俗",
    "geocode_source": "高德地理编码API",
    "geocode_address": "广东省佛山市南海区九江九江镇"
  },
  {
    "name": "广式家具制作技艺",
    "level": "省级",
    "town": "九江镇",
    "lng": 113.010807,
    "lat": 22.863346,
    "category": "传统技艺",
    "geocode_source": "高德地理编码API",
    "geocode_address": "广东省佛山市南海区九江镇"
  },
  {
    "name": "洪拳（南海洪拳）",
    "level": "省级",
    "town": "西樵镇",
    "lng": 112.987172,
    "lat": 22.938068,
    "category": "传统体育",
    "geocode_source": "高德地理编码API",
    "geocode_address": "广东省佛山市南海区西樵镇"
  },
  {
    "name": "龙舟说唱",
    "level": "市级",
    "town": "桂城街道",
    "lng": 113.161502,
    "lat": 23.037979,
    "category": "传统音乐",
    "geocode_source": "高德地理编码API",
    "geocode_address": "广东省佛山市南海区桂城街道"
  },
  {
    "name": "白眉拳",
    "level": "市级",
    "town": "里水镇",
    "lng": 113.164507,
    "lat": 23.198906,
    "category": "传统体育",
    "geocode_source": "高德地理编码API",
    "geocode_address": "广东省佛山市南海区里水镇"
  },
  {
    "name": "大头佛",
    "level": "市级",
    "town": "西樵镇",
    "lng": 112.987172,
    "lat": 22.938068,
    "category": "传统舞蹈",
    "geocode_source": "高德地理编码API",
    "geocode_address": "广东省佛山市南海区西樵镇"
  },
  {
    "name": "南海灰塑",
    "level": "市级",
    "town": "狮山镇",
    "lng": 113.034903,
    "lat": 23.099202,
    "category": "传统美术",
    "geocode_source": "高德地理编码API",
    "geocode_address": "广东省佛山市南海区南海镇狮山镇"
  },
  {
    "name": "叠滘弯道赛龙船",
    "level": "市级",
    "town": "桂城街道",
    "lng": 113.161502,
    "lat": 23.037979,
    "category": "传统体育",
    "geocode_source": "高德地理编码API",
    "geocode_address": "广东省佛山市南海区叠滘桂城街道"
  },
  {
    "name": "平洲传统玉器制作技艺",
    "level": "市级",
    "town": "桂城街道",
    "lng": 113.201638,
    "lat": 23.029502,
    "category": "传统技艺",
    "geocode_source": "高德地理编码API",
    "geocode_address": "广东省佛山市南海区平洲玉器街道桂城街道平洲"
  },
  {
    "name": "丹灶葛洪炼丹传说",
    "level": "市级",
    "town": "丹灶镇",
    "lng": 112.919229,
    "lat": 23.051148,
    "category": "民间文学",
    "geocode_source": "高德地理编码API",
    "geocode_address": "广东省佛山市南海区丹灶丹灶镇"
  },
  {
    "name": "华岳心意六合八法拳",
    "level": "市级",
    "town": "大沥镇",
    "lng": 113.149319,
    "lat": 23.106918,
    "category": "传统体育",
    "geocode_source": "高德地理编码API",
    "geocode_address": "广东省佛山市南海区大沥镇"
  },
  {
    "name": "西樵传统缫丝技艺",
    "level": "市级",
    "town": "西樵镇",
    "lng": 112.987172,
    "lat": 22.938068,
    "category": "传统技艺",
    "geocode_source": "高德地理编码API",
    "geocode_address": "广东省佛山市南海区西樵西樵镇"
  }
]